{"type":"FeatureCollection","features":[{"type":"Feature","properties":{"name":"RP Smart Desenvolvimento de Sistemas Ltda.","marker-color":"#f90101","marker-size":"medium"},"geometry":{"coordinates":[-54.57975640903862,-25.516493582588453],"type":"Point"}},{"type":"Feature","properties":{"name":"MULTICAPAS PORTO MEIRA LTDA","marker-color":"#fa0000","marker-size":"medium"},"geometry":{"coordinates":[-54.57790196884832,-25.57673505892619],"type":"Point"}},{"type":"Feature","properties":{"name":"(HIDRAMAR) M J E DA SILVA COMERCIO LTDA","marker-color":"#ff0000","marker-size":"medium"},"geometry":{"coordinates":[-54.58696413275264,-25.53721275972184],"type":"Point"}},{"type":"Feature","properties":{"name":"Orla Foz Esportes","marker-color":"#ff0000","marker-size":"medium"},"geometry":{"coordinates":[-54.55669049063039,-25.540242097437613],"type":"Point"}},{"type":"Feature","properties":{"name":"JARDIM DOS IMIGRANTES RESTAURANTE LTDA","marker-color":"#ff0000","marker-size":"medium"},"geometry":{"coordinates":[-54.575020742922604,-25.556478529525336],"type":"Point"}},{"type":"Feature","properties":{"name":"LANCHONETE CENTENARO","marker-color":"#ff0000","marker-size":"medium"},"geometry":{"coordinates":[-54.54230748484713,-25.522197550193653],"type":"Point"}},{"type":"Feature","properties":{"name":"Casa de Carne Narão","marker-color":"#ff0000","marker-size":"medium"},"geometry":{"coordinates":[-54.40359511041095,-25.439509863400275],"type":"Point"}},{"type":"Feature","properties":{"name":"Shawarma do Papai","marker-color":"#ff0000","marker-size":"medium"},"geometry":{"coordinates":[-54.57526710402557,-25.56970904610661],"type":"Point"}},{"type":"Feature","properties":{"name":"Gabi Jóias","marker-color":"#ff0000","marker-size":"medium"},"geometry":{"coordinates":[-54.5541914776868,-25.49420056087874],"type":"Point"}},{"type":"Feature","properties":{"name":"Multicapas Morumbi","marker-color":"#ff0000","marker-size":"medium"},"geometry":{"coordinates":[-54.53639601919134,-25.520606070032215],"type":"Point"}},{"type":"Feature","properties":{"name":"Boteco São Bento","marker-color":"#ff0000","marker-size":"medium"},"geometry":{"coordinates":[-54.57259598310971,-25.522382243716848],"type":"Point"}},{"type":"Feature","properties":{"name":"Corsol","marker-color":"#ff0000","marker-size":"medium"},"geometry":{"coordinates":[-54.59371326290275,-25.512489691746765],"type":"Point"}},{"type":"Feature","properties":{"name":"Corsol","marker-color":"#ff0000","marker-size":"medium"},"geometry":{"coordinates":[-54.593280151690976,-25.510686874469144],"type":"Point"}},{"type":"Feature","properties":{"name":"Fresas Foz","marker-color":"#ff0000","marker-size":"medium"},"geometry":{"coordinates":[-54.576880165930504,-25.577105939239374],"type":"Point"}},{"type":"Feature","properties":{"name":"Moda Mista","marker-color":"#ff0000","marker-size":"medium"},"geometry":{"coordinates":[-54.584623933688235,-25.541339616887555],"type":"Point"}},{"type":"Feature","properties":{"name":"Delicious Lanchonete","marker-color":"#ff0000","marker-size":"medium"},"geometry":{"coordinates":[-54.589424302169874,-25.544642159168745],"type":"Point"}},{"type":"Feature","properties":{"name":"Clinica Dal Vesco","marker-color":"#ff0000","marker-size":"medium"},"geometry":{"coordinates":[-52.41690909676478,-28.262770116248596],"type":"Point"}},{"type":"Feature","properties":{"name":"Turma da Gelada","marker-color":"#ff0000","marker-size":"medium"},"geometry":{"coordinates":[-54.56142780185701,-25.480773888195444],"type":"Point"}},{"type":"Feature","properties":{"name":"Pesque Pague Conte","marker-color":"#ff0000","marker-size":"medium"},"geometry":{"coordinates":[-54.486815145099754,-25.58014183157249],"type":"Point"}},{"type":"Feature","properties":{"name":"Guns Neer Pub Bar","marker-color":"#ff0000","marker-size":"medium"},"geometry":{"coordinates":[-54.575930529262266,-25.53958147647785],"type":"Point"}},{"type":"Feature","properties":{"name":"Daisy Materiais de Construção","marker-color":"#ff0000","marker-size":"medium"},"geometry":{"coordinates":[-54.560992054414044,-25.449581533792355],"type":"Point"}},{"type":"Feature","properties":{"name":"Deni Pereira da Silva & Cia Ltda","marker-color":"#ff0000","marker-size":"medium"},"geometry":{"coordinates":[-54.541548940274865,-25.551233863730033],"type":"Point"}},{"type":"Feature","properties":{"name":"Frida Preesenes","marker-color":"#ff0000","marker-size":"medium"},"geometry":{"coordinates":[-54.58608350645244,-25.542459273529758],"type":"Point"}},{"type":"Feature","properties":{"name":"Comércio de Óculos Rafa Ltda.","marker-color":"#ff0000","marker-size":"medium"},"geometry":{"coordinates":[-54.56290134540727,-25.494296931431293],"type":"Point"}},{"type":"Feature","properties":{"name":"Churrasquinho na Brasa","marker-color":"#ff0000","marker-size":"medium"},"geometry":{"coordinates":[-54.54686896031993,-25.49457718928339],"type":"Point"}},{"type":"Feature","properties":{"name":"Box Alimentos","marker-color":"#ff0000","marker-size":"medium"},"geometry":{"coordinates":[-54.587074883817564,-25.516910883934898],"type":"Point"}},{"type":"Feature","properties":{"name":"LRB Comércio de Óculos Ltda.","marker-color":"#ff0000","marker-size":"medium"},"geometry":{"coordinates":[-54.57536530151579,-25.576751617862058],"type":"Point"}},{"type":"Feature","properties":{"name":"Comercio de Óculos Foz Cataratas Ltda.","marker-color":"#ff0000","marker-size":"medium"},"geometry":{"coordinates":[-54.58570379358525,-25.54269525106271],"type":"Point"}},{"type":"Feature","properties":{"name":"Multicapas","marker-color":"#ff0000","marker-size":"medium"},"geometry":{"coordinates":[-54.58650089420182,-25.54318673931155],"type":"Point"}},{"type":"Feature","properties":{"name":"Milers Lanches","marker-color":"#ff0000","marker-size":"medium"},"geometry":{"coordinates":[-54.53845479208769,-25.551915203396206],"type":"Point"}},{"type":"Feature","properties":{"name":"James Bar","marker-color":"#ff0000","marker-size":"medium"},"geometry":{"coordinates":[-54.554821727133344,-25.54847222524954],"type":"Point"}},{"type":"Feature","properties":{"name":"Rute Espetinhos","marker-color":"#ff0000","marker-size":"medium"},"geometry":{"coordinates":[-54.580445554327,-25.514088921811847],"type":"Point"}},{"type":"Feature","properties":{"name":"EURO AMERICA CONSULTING AND IMPORT S.A.","marker-color":"#ff0000","marker-size":"medium"},"geometry":{"coordinates":[-54.61466573746745,-25.50779046344792],"type":"Point"}},{"type":"Feature","properties":{"name":"Só Capas","marker-color":"#ff0000","marker-size":"medium"},"geometry":{"coordinates":[-54.586107661881826,-25.54231585730679],"type":"Point"}},{"type":"Feature","properties":{"name":"Maracaju Gás","marker-color":"#ff0000","marker-size":"medium"},"geometry":{"coordinates":[-54.58423901336873,-25.469475340081004],"type":"Point"}},{"type":"Feature","properties":{"name":"Abrapar Despachos Aduaneiros Ltda","marker-color":"#ff0000","marker-size":"medium"},"geometry":{"coordinates":[-54.57440494556553,-25.524555658642626],"type":"Point"}},{"type":"Feature","properties":{"name":"RP Smart Desenvolvimento de Sistemas Ltda.","marker-color":"#f90101","marker-size":"medium"},"geometry":{"coordinates":[-54.57975640903862,-25.516493582588453],"type":"Point"},"id":38},{"type":"Feature","properties":{"name":"MULTICAPAS PORTO MEIRA LTDA","marker-color":"#fa0000","marker-size":"medium"},"geometry":{"coordinates":[-54.57790196884832,-25.57673505892619],"type":"Point"},"id":42},{"type":"Feature","properties":{"name":"(HIDRAMAR) M J E DA SILVA COMERCIO LTDA","marker-color":"#ff0000","marker-size":"medium"},"geometry":{"coordinates":[-54.58696413275264,-25.53721275972184],"type":"Point"},"id":38},{"type":"Feature","properties":{"name":"Orla Foz Esportes","marker-color":"#1eff00","marker-size":"medium"},"geometry":{"coordinates":[-54.55669049063039,-25.540242097437613],"type":"Point"},"id":39},{"type":"Feature","properties":{"name":"JARDIM DOS IMIGRANTES RESTAURANTE LTDA","marker-color":"#00ff33","marker-size":"medium"},"geometry":{"coordinates":[-54.575020742922604,-25.556478529525336],"type":"Point"},"id":40},{"type":"Feature","properties":{"name":"LANCHONETE CENTENARO","marker-color":"#00ff2a","marker-size":"medium"},"geometry":{"coordinates":[-54.54230748484713,-25.522197550193653],"type":"Point"},"id":41},{"type":"Feature","properties":{"name":"Casa de Carne Narão","marker-color":"#ff0000","marker-size":"medium"},"geometry":{"coordinates":[-54.40359511041095,-25.439509863400275],"type":"Point"},"id":48},{"type":"Feature","properties":{"name":"Shawarma do Papai","marker-color":"#4dff00","marker-size":"medium"},"geometry":{"coordinates":[-54.57526710402557,-25.56970904610661],"type":"Point"},"id":47},{"type":"Feature","properties":{"name":"Fabi Jóias","marker-color":"#ff0000","marker-size":"medium"},"geometry":{"coordinates":[-54.5541914776868,-25.49420056087874],"type":"Point"},"id":47},{"type":"Feature","properties":{"name":"Multicapas Morumbi","marker-color":"#ff0000","marker-size":"medium"},"geometry":{"coordinates":[-54.53639601919134,-25.520606070032215],"type":"Point"},"id":53},{"type":"Feature","properties":{"name":"Boteco São Bento","marker-color":"#ff0000","marker-size":"medium"},"geometry":{"coordinates":[-54.57259598310971,-25.522382243716848],"type":"Point"},"id":53},{"type":"Feature","properties":{"name":"Corsol","marker-color":"#00ff59","marker-size":"medium"},"geometry":{"coordinates":[-54.59371326290275,-25.512489691746765],"type":"Point"},"id":47},{"type":"Feature","properties":{"name":"Corsol","marker-color":"#00ff11","marker-size":"medium"},"geometry":{"coordinates":[-54.593280151690976,-25.510686874469144],"type":"Point"},"id":48},{"type":"Feature","properties":{"name":"Fresas Foz","marker-color":"#ff0000","marker-size":"medium"},"geometry":{"coordinates":[-54.576880165930504,-25.577105939239374],"type":"Point"},"id":56},{"type":"Feature","properties":{"name":"Moda Mista","marker-color":"#2bff00","marker-size":"medium"},"geometry":{"coordinates":[-54.584623933688235,-25.541339616887555],"type":"Point"},"id":50},{"type":"Feature","properties":{"name":"Delicious Lanchonete","marker-color":"#ff0000","marker-size":"medium"},"geometry":{"coordinates":[-54.589424302169874,-25.544642159168745],"type":"Point"},"id":57},{"type":"Feature","properties":{"name":"Clinica Dal Vesco","marker-color":"#ff0000","marker-size":"medium"},"geometry":{"coordinates":[-52.41690909676478,-28.262770116248596],"type":"Point"}},{"type":"Feature","properties":{"name":"Turma da Gelada","marker-color":"#ff0000","marker-size":"medium"},"geometry":{"coordinates":[-54.56142780185701,-25.480773888195444],"type":"Point"},"id":53},{"type":"Feature","properties":{"name":"Pesque Pague Conte","marker-color":"#ff0000","marker-size":"medium"},"geometry":{"coordinates":[-54.486815145099754,-25.58014183157249],"type":"Point"},"id":54},{"type":"Feature","properties":{"name":"Guns Neer Pub Bar","marker-color":"#ff0000","marker-size":"medium"},"geometry":{"coordinates":[-54.575930529262266,-25.53958147647785],"type":"Point"},"id":58},{"type":"Feature","properties":{"name":"Daisy Materiais de Construção","marker-color":"#ff0000","marker-size":"medium"},"geometry":{"coordinates":[-54.560992054414044,-25.449581533792355],"type":"Point"},"id":56},{"type":"Feature","properties":{"name":"Deni Pereira da Silva & Cia Ltda","marker-color":"#ff0000","marker-size":"medium"},"geometry":{"coordinates":[-54.541548940274865,-25.551233863730033],"type":"Point"},"id":57},{"type":"Feature","properties":{"name":"Frida Preesenes","marker-color":"#ff0000","marker-size":"medium"},"geometry":{"coordinates":[-54.58608350645244,-25.542459273529758],"type":"Point"}},{"type":"Feature","properties":{"name":"Comércio de Óculos Rafa Ltda.","marker-color":"#ff0000","marker-size":"medium"},"geometry":{"coordinates":[-54.56290134540727,-25.494296931431293],"type":"Point"},"id":59},{"type":"Feature","properties":{"name":"Churrasquinho na Brasa","marker-color":"#ff0000","marker-size":"medium"},"geometry":{"coordinates":[-54.54686896031993,-25.49457718928339],"type":"Point"},"id":62},{"type":"Feature","properties":{"name":"Box Alimentos","marker-color":"#ff0000","marker-size":"medium"},"geometry":{"coordinates":[-54.587074883817564,-25.516910883934898],"type":"Point"},"id":69},{"type":"Feature","properties":{"name":"LRB Comércio de Óculos Ltda.","marker-color":"#ff0000","marker-size":"medium"},"geometry":{"coordinates":[-54.57536530151579,-25.576751617862058],"type":"Point"},"id":69},{"type":"Feature","properties":{"name":"Comercio de Óculos Foz Cataratas Ltda.","marker-color":"#ff0000","marker-size":"medium"},"geometry":{"coordinates":[-54.58570379358525,-25.54269525106271],"type":"Point"},"id":67},{"type":"Feature","properties":{"name":"Multicapas","marker-color":"#00ff4c","marker-size":"medium"},"geometry":{"coordinates":[-54.58650089420182,-25.54318673931155],"type":"Point"},"id":64},{"type":"Feature","properties":{"name":"Milers Lanches","marker-color":"#ff0000","marker-size":"medium"},"geometry":{"coordinates":[-54.53845479208769,-25.551915203396206],"type":"Point"},"id":65},{"type":"Feature","properties":{"name":"James Bar","marker-color":"#00ff40","marker-size":"medium"},"geometry":{"coordinates":[-54.554821727133344,-25.54847222524954],"type":"Point"},"id":66},{"type":"Feature","properties":{"name":"Rute Espetinhos","marker-color":"#ff0000","marker-size":"medium"},"geometry":{"coordinates":[-54.580445554327,-25.514088921811847],"type":"Point"},"id":70},{"type":"Feature","properties":{"name":"EURO AMERICA CONSULTING AND IMPORT S.A.","marker-color":"#ff0000","marker-size":"medium"},"geometry":{"coordinates":[-54.61466573746745,-25.50779046344792],"type":"Point"}},{"type":"Feature","properties":{"name":"Só Capas","marker-color":"#04ff00","marker-size":"medium"},"geometry":{"coordinates":[-54.586107661881826,-25.54231585730679],"type":"Point"},"id":69},{"type":"Feature","properties":{"name":"Maracaju Gás","marker-color":"#ff0000","marker-size":"medium"},"geometry":{"coordinates":[-54.58423901336873,-25.469475340081004],"type":"Point"},"id":70},{"type":"Feature","properties":{"name":"Abrapar Despachos Aduaneiros Ltda","marker-color":"#ff0000","marker-size":"medium"},"geometry":{"coordinates":[-54.57440494556553,-25.524555658642626],"type":"Point"},"id":71},{"type":"Feature","properties":{"name":"Neubern Engenharia em Concreto Pre Moldados Ltda","marker-color":"#ff0000","marker-size":"medium"},"geometry":{"coordinates":[-54.577867619184886,-25.459103147392028],"type":"Point"},"id":72},{"type":"Feature","properties":{"name":"Concreto Armado Pre-Moldados Ltda","marker-color":"#ff0000","marker-size":"medium"},"geometry":{"coordinates":[-54.5258818059085,-25.517437432027364],"type":"Point"},"id":73},{"type":"Feature","properties":{"name":"ICLI","marker-color":"#ff0000","marker-size":"medium"},"geometry":{"coordinates":[-54.50988990236468,-25.441747864352166],"type":"Point"}},{"type":"Feature","properties":{"name":"Helisul Taxi Aereo","marker-color":"#ff0000","marker-size":"medium"},"geometry":{"coordinates":[-54.493603425465935,-25.60739059899811],"type":"Point"}},{"type":"Feature","properties":{"name":"D´orsay","marker-color":"#ff0000","marker-size":"medium"},"geometry":{"coordinates":[-54.58510879873728,-25.534795429310606],"type":"Point"},"id":76},{"type":"Feature","properties":{"name":"Recanto da Moda","marker-color":"#ff0000","marker-size":"medium"},"geometry":{"coordinates":[-54.57767363122457,-25.49447196243409],"type":"Point"},"id":77},{"type":"Feature","properties":{"name":"Hospital Madre de Dio","marker-color":"#ff0000","marker-size":"medium"},"geometry":{"coordinates":[-54.24294725485585,-25.354435970621907],"type":"Point"},"id":86},{"type":"Feature","properties":{"name ":"Lucio Jóias","marker-color":"#ff0000","marker-size":"medium"},"geometry":{"coordinates":[-54.58492723270025,-25.541552927938113],"type":"Point"},"id":83},{"type":"Feature","properties":{"name":"Medfer","marker-color":"#ff0000","marker-size":"medium"},"geometry":{"coordinates":[-54.095389813593854,-25.291317986797182],"type":"Point"},"id":88},{"type":"Feature","properties":{"name":"Secretaria Municipal de Saúde","marker-color":"#ff0000","marker-size":"medium"},"geometry":{"coordinates":[-54.5865101667505,-25.548602957759513],"type":"Point"},"id":87},{"type":"Feature","properties":{"name":"Motel Libidus","marker-color":"#ff0000","marker-size":"medium"},"geometry":{"coordinates":[-54.55589419420275,-25.517446210365208],"type":"Point"},"id":82},{"type":"Feature","properties":{"name":"CliniCell","marker-color":"#ff0000","marker-size":"medium"},"geometry":{"coordinates":[-54.58398986731177,-25.544717912636486],"type":"Point"},"id":87},{"type":"Feature","properties":{"name":"Eletroeste","marker-color":"#ff0000","marker-size":"medium"},"geometry":{"coordinates":[-54.58457727510459,-25.51174203029464],"type":"Point"},"id":87},{"type":"Feature","properties":{"name":"Juana Maidana Turmina ME","marker-color":"#ff0000","marker-size":"medium"},"geometry":{"coordinates":[-54.5748634293103,-25.490662851328736],"type":"Point"},"id":85},{"type":"Feature","properties":{"name":"RC Construtora","marker-color":"#ff0000","marker-size":"medium"},"geometry":{"coordinates":[-54.582583459496604,-25.53600279880372],"type":"Point"},"id":86},{"type":"Feature","properties":{"name":"MAGIA DA SELVA CONFECCOES LTDA.","marker-color":"#ff0000","marker-size":"medium"},"geometry":{"coordinates":[-54.4820927042655,-25.613226514776045],"type":"Point"}},{"type":"Feature","properties":{"name":"COMERCIO VAREJISTA LUAN GLASSES E SEMI JOIAS LTDA.","marker-color":"#00ff11","marker-size":"medium"},"geometry":{"coordinates":[-54.50642189129992,-25.485631623439048],"type":"Point"},"id":88},{"type":"Feature","properties":{"name":"COMERCIO DE OCULOS RODRIGUES LTDA.","marker-color":"#ff0000","marker-size":"medium"},"geometry":{"coordinates":[-54.58460142697707,-25.544675183872343],"type":"Point"},"id":93},{"type":"Feature","properties":{"name":"COMERCIO DE OCULOS LUAN LTDA","marker-color":"#ff0000","marker-size":"medium"},"geometry":{"coordinates":[-54.57593312207513,-25.576701901927734],"type":"Point"},"id":90},{"type":"Feature","properties":{"name":"PREFEITURA SÃO LUIZ GONZAGA","marker-color":"#ff0000","marker-size":"medium"},"geometry":{"coordinates":[-54.960659477471,-28.408460857998826],"type":"Point"}},{"type":"Feature","properties":{"name":"DR. BAGUETE","marker-color":"#00ff2a","marker-size":"medium"},"geometry":{"coordinates":[-54.55149859409113,-25.53584694572409],"type":"Point"},"id":92},{"type":"Feature","properties":{"name":"VITTA NATURAL AV. DAS CATARATAS","marker-color":"#ff0000","marker-size":"medium"},"geometry":{"coordinates":[-54.569639482577486,-25.55310731321235],"type":"Point"},"id":93},{"type":"Feature","properties":{"name":"VITTA NATURAL ","marker-color":"#ff0000","marker-size":"medium"},"geometry":{"coordinates":[-54.5885463700034,-25.54435407578862],"type":"Point"},"id":100},{"type":"Feature","properties":{"name":"JANIOS LANCHES","marker-color":"#ff0000","marker-size":"medium"},"geometry":{"coordinates":[-54.5518764936498,-25.539510508409606],"type":"Point"},"id":95},{"type":"Feature","properties":{"name":"ESTAÇÃO DA BRASA","marker-color":"#ff0000","marker-size":"medium"},"geometry":{"coordinates":[-54.552121619435866,-25.515663403674736],"type":"Point"},"id":96},{"type":"Feature","properties":{"name":"AMERICA ESPETINHO","marker-color":"#ff0000","marker-size":"medium"},"geometry":{"coordinates":[-54.5903006949915,-25.523645006020843],"type":"Point"},"id":97},{"type":"Feature","properties":{"name":"TENDENCIA MODERNA","marker-color":"#00ff1e","marker-size":"medium"},"geometry":{"coordinates":[-54.593626235280624,-25.5110846530106],"type":"Point"},"id":98},{"type":"Feature","properties":{"name":"BIG ESPETO","marker-color":"#ff0000","marker-size":"medium"},"geometry":{"coordinates":[-54.581121460486784,-25.47720128659222],"type":"Point"},"id":99},{"type":"Feature","properties":{"name":"SUPER PIZZA","marker-color":"#ff0000","marker-size":"medium"},"geometry":{"coordinates":[-54.57854148991113,-25.45124516144905],"type":"Point"}},{"type":"Feature","properties":{"name":"LOJINHA DO CELULAR","marker-color":"#ff0000","marker-size":"medium"},"geometry":{"coordinates":[-54.578547134358374,-25.451255991852747],"type":"Point"},"id":101},{"type":"Feature","properties":{"name":"NICE PAPELARIA","marker-color":"#00ff1e","marker-size":"medium"},"geometry":{"coordinates":[-54.55989380321108,-25.44958069316121],"type":"Point"},"id":102},{"type":"Feature","properties":{"name":"OTICAS POLINE MORUMBI","marker-color":"#ff0000","marker-size":"medium"},"geometry":{"coordinates":[-54.53657057386256,-25.52093221754376],"type":"Point"},"id":103},{"type":"Feature","properties":{"name":"CHIC COSMETICO","marker-color":"#00ff1e","marker-size":"medium"},"geometry":{"coordinates":[-54.55959171295878,-25.494436999862472],"type":"Point"},"id":107},{"type":"Feature","properties":{"name":"CHURRASCO DO MATHIAS","marker-color":"#ff0000","marker-size":"medium"},"geometry":{"coordinates":[-54.49797849344202,-25.476027107540972],"type":"Point"},"id":105},{"type":"Feature","properties":{"name":"GOLD STATE SHAWARMA","marker-color":"#ff0000","marker-size":"medium"},"geometry":{"coordinates":[-54.50756429936075,-25.48376935854388],"type":"Point"}},{"type":"Feature","properties":{"name":"FEITO EM CASA","marker-color":"#ff0000","marker-size":"medium"},"geometry":{"coordinates":[-54.58041622372318,-25.494441661785075],"type":"Point"},"id":107},{"type":"Feature","properties":{"name":"JECA ESPETINHO","marker-color":"#00ff2a","marker-size":"medium"},"geometry":{"coordinates":[-54.554166450590614,-25.53573708028894],"type":"Point"},"id":108},{"type":"Feature","properties":{"name":"MC MOVEIS","marker-color":"#ff0000","marker-size":"medium"},"geometry":{"coordinates":[-54.56943033685583,-25.57717397606025],"type":"Point"}},{"type":"Feature","properties":{"name":"MERCEARIA CEARA","marker-color":"#ff0000","marker-size":"medium"},"geometry":{"coordinates":[-54.56768501410295,-25.58199384018802],"type":"Point"},"id":113},{"type":"Feature","properties":{"name":"MULTI CAPAS STI","marker-color":"#ff0000","marker-size":"medium"},"geometry":{"coordinates":[-54.40125989369632,-25.443442697251683],"type":"Point"},"id":119},{"type":"Feature","properties":{"name":"PETISCARIA DAISY","marker-color":"#ff0000","marker-size":"medium"},"geometry":{"coordinates":[-54.561020309709875,-25.48429370484118],"type":"Point"},"id":112},{"type":"Feature","properties":{"name":"RUKASU SUSHI","marker-color":"#ff0000","marker-size":"medium"},"geometry":{"coordinates":[-54.616366595026065,-25.516519760682073],"type":"Point"}},{"type":"Feature","properties":{"name":"FASHION COSMETICO","marker-color":"#ff0000","marker-size":"medium"},"geometry":{"coordinates":[-55.089452294484076,-25.799286340609456],"type":"Point"}},{"type":"Feature","properties":{"name":"CANTINHO DO CEU","marker-color":"#ff0000","marker-size":"medium"},"geometry":{"coordinates":[-53.14702410317314,-25.94385322836692],"type":"Point"}},{"type":"Feature","properties":{"name":"SAVENNA SPORT BEACH","marker-color":"#11ff00","marker-size":"medium"},"geometry":{"coordinates":[-54.5705633467918,-25.571871083345528],"type":"Point"},"id":116},{"type":"Feature","properties":{"name":"super pizza","marker-color":"#ff3300","marker-size":"medium"},"geometry":{"coordinates":[-54.57830940509166,-25.450691664972553],"type":"Point"},"id":117}]}
