{"type":"Topology","objects":{"collection":{"type":"GeometryCollection","geometries":[{"type":"Point","coordinates":[-54.57975640903862,-25.516493582588453],"properties":{"name":"RP Smart Desenvolvimento de Sistemas Ltda.","marker-color":"#f90101","marker-size":"medium"}},{"type":"Point","coordinates":[-54.57790196884832,-25.57673505892619],"properties":{"name":"MULTICAPAS PORTO MEIRA LTDA","marker-color":"#fa0000","marker-size":"medium"}},{"type":"Point","coordinates":[-54.58696413275264,-25.53721275972184],"properties":{"name":"(HIDRAMAR) M J E DA SILVA COMERCIO LTDA","marker-color":"#ff0000","marker-size":"medium"}},{"type":"Point","coordinates":[-54.55669049063039,-25.540242097437613],"properties":{"name":"Orla Foz Esportes","marker-color":"#ff0000","marker-size":"medium"}},{"type":"Point","coordinates":[-54.575020742922604,-25.556478529525336],"properties":{"name":"JARDIM DOS IMIGRANTES RESTAURANTE LTDA","marker-color":"#ff0000","marker-size":"medium"}},{"type":"Point","coordinates":[-54.54230748484713,-25.522197550193653],"properties":{"name":"LANCHONETE CENTENARO","marker-color":"#ff0000","marker-size":"medium"}},{"type":"Point","coordinates":[-54.40359511041095,-25.439509863400275],"properties":{"name":"Casa de Carne Narão","marker-color":"#ff0000","marker-size":"medium"}},{"type":"Point","coordinates":[-54.57526710402557,-25.56970904610661],"properties":{"name":"Shawarma do Papai","marker-color":"#ff0000","marker-size":"medium"}},{"type":"Point","coordinates":[-54.5541914776868,-25.49420056087874],"properties":{"name":"Gabi Jóias","marker-color":"#ff0000","marker-size":"medium"}},{"type":"Point","coordinates":[-54.53639601919134,-25.520606070032215],"properties":{"name":"Multicapas Morumbi","marker-color":"#ff0000","marker-size":"medium"}},{"type":"Point","coordinates":[-54.57259598310971,-25.522382243716848],"properties":{"name":"Boteco São Bento","marker-color":"#ff0000","marker-size":"medium"}},{"type":"Point","coordinates":[-54.59371326290275,-25.512489691746765],"properties":{"name":"Corsol","marker-color":"#ff0000","marker-size":"medium"}},{"type":"Point","coordinates":[-54.593280151690976,-25.510686874469144],"properties":{"name":"Corsol","marker-color":"#ff0000","marker-size":"medium"}},{"type":"Point","coordinates":[-54.576880165930504,-25.577105939239374],"properties":{"name":"Fresas Foz","marker-color":"#ff0000","marker-size":"medium"}},{"type":"Point","coordinates":[-54.584623933688235,-25.541339616887555],"properties":{"name":"Moda Mista","marker-color":"#ff0000","marker-size":"medium"}},{"type":"Point","coordinates":[-54.589424302169874,-25.544642159168745],"properties":{"name":"Delicious Lanchonete","marker-color":"#ff0000","marker-size":"medium"}},{"type":"Point","coordinates":[-52.41690909676478,-28.262770116248596],"properties":{"name":"Clinica Dal Vesco","marker-color":"#ff0000","marker-size":"medium"}},{"type":"Point","coordinates":[-54.56142780185701,-25.480773888195444],"properties":{"name":"Turma da Gelada","marker-color":"#ff0000","marker-size":"medium"}},{"type":"Point","coordinates":[-54.486815145099754,-25.58014183157249],"properties":{"name":"Pesque Pague Conte","marker-color":"#ff0000","marker-size":"medium"}},{"type":"Point","coordinates":[-54.575930529262266,-25.53958147647785],"properties":{"name":"Guns Neer Pub Bar","marker-color":"#ff0000","marker-size":"medium"}},{"type":"Point","coordinates":[-54.560992054414044,-25.449581533792355],"properties":{"name":"Daisy Materiais de Construção","marker-color":"#ff0000","marker-size":"medium"}},{"type":"Point","coordinates":[-54.541548940274865,-25.551233863730033],"properties":{"name":"Deni Pereira da Silva & Cia Ltda","marker-color":"#ff0000","marker-size":"medium"}},{"type":"Point","coordinates":[-54.58608350645244,-25.542459273529758],"properties":{"name":"Frida Preesenes","marker-color":"#ff0000","marker-size":"medium"}},{"type":"Point","coordinates":[-54.56290134540727,-25.494296931431293],"properties":{"name":"Comércio de Óculos Rafa Ltda.","marker-color":"#ff0000","marker-size":"medium"}},{"type":"Point","coordinates":[-54.54686896031993,-25.49457718928339],"properties":{"name":"Churrasquinho na Brasa","marker-color":"#ff0000","marker-size":"medium"}},{"type":"Point","coordinates":[-54.587074883817564,-25.516910883934898],"properties":{"name":"Box Alimentos","marker-color":"#ff0000","marker-size":"medium"}},{"type":"Point","coordinates":[-54.57536530151579,-25.576751617862058],"properties":{"name":"LRB Comércio de Óculos Ltda.","marker-color":"#ff0000","marker-size":"medium"}},{"type":"Point","coordinates":[-54.58570379358525,-25.54269525106271],"properties":{"name":"Comercio de Óculos Foz Cataratas Ltda.","marker-color":"#ff0000","marker-size":"medium"}},{"type":"Point","coordinates":[-54.58650089420182,-25.54318673931155],"properties":{"name":"Multicapas","marker-color":"#ff0000","marker-size":"medium"}},{"type":"Point","coordinates":[-54.53845479208769,-25.551915203396206],"properties":{"name":"Milers Lanches","marker-color":"#ff0000","marker-size":"medium"}},{"type":"Point","coordinates":[-54.554821727133344,-25.54847222524954],"properties":{"name":"James Bar","marker-color":"#ff0000","marker-size":"medium"}},{"type":"Point","coordinates":[-54.580445554327,-25.514088921811847],"properties":{"name":"Rute Espetinhos","marker-color":"#ff0000","marker-size":"medium"}},{"type":"Point","coordinates":[-54.61466573746745,-25.50779046344792],"properties":{"name":"EURO AMERICA CONSULTING AND IMPORT S.A.","marker-color":"#ff0000","marker-size":"medium"}},{"type":"Point","coordinates":[-54.586107661881826,-25.54231585730679],"properties":{"name":"Só Capas","marker-color":"#ff0000","marker-size":"medium"}},{"type":"Point","coordinates":[-54.58423901336873,-25.469475340081004],"properties":{"name":"Maracaju Gás","marker-color":"#ff0000","marker-size":"medium"}},{"type":"Point","coordinates":[-54.57440494556553,-25.524555658642626],"properties":{"name":"Abrapar Despachos Aduaneiros Ltda","marker-color":"#ff0000","marker-size":"medium"}},{"type":"Point","coordinates":[-54.57975640903862,-25.516493582588453],"id":38,"properties":{"name":"RP Smart Desenvolvimento de Sistemas Ltda.","marker-color":"#f90101","marker-size":"medium"}},{"type":"Point","coordinates":[-54.57790196884832,-25.57673505892619],"id":42,"properties":{"name":"MULTICAPAS PORTO MEIRA LTDA","marker-color":"#fa0000","marker-size":"medium"}},{"type":"Point","coordinates":[-54.58696413275264,-25.53721275972184],"id":38,"properties":{"name":"(HIDRAMAR) M J E DA SILVA COMERCIO LTDA","marker-color":"#ff0000","marker-size":"medium"}},{"type":"Point","coordinates":[-54.55669049063039,-25.540242097437613],"id":39,"properties":{"name":"Orla Foz Esportes","marker-color":"#1eff00","marker-size":"medium"}},{"type":"Point","coordinates":[-54.575020742922604,-25.556478529525336],"id":40,"properties":{"name":"JARDIM DOS IMIGRANTES RESTAURANTE LTDA","marker-color":"#00ff33","marker-size":"medium"}},{"type":"Point","coordinates":[-54.54230748484713,-25.522197550193653],"id":41,"properties":{"name":"LANCHONETE CENTENARO","marker-color":"#00ff2a","marker-size":"medium"}},{"type":"Point","coordinates":[-54.40359511041095,-25.439509863400275],"id":48,"properties":{"name":"Casa de Carne Narão","marker-color":"#ff0000","marker-size":"medium"}},{"type":"Point","coordinates":[-54.57526710402557,-25.56970904610661],"id":47,"properties":{"name":"Shawarma do Papai","marker-color":"#4dff00","marker-size":"medium"}},{"type":"Point","coordinates":[-54.5541914776868,-25.49420056087874],"id":47,"properties":{"name":"Fabi Jóias","marker-color":"#ff0000","marker-size":"medium"}},{"type":"Point","coordinates":[-54.53639601919134,-25.520606070032215],"id":53,"properties":{"name":"Multicapas Morumbi","marker-color":"#ff0000","marker-size":"medium"}},{"type":"Point","coordinates":[-54.57259598310971,-25.522382243716848],"id":53,"properties":{"name":"Boteco São Bento","marker-color":"#ff0000","marker-size":"medium"}},{"type":"Point","coordinates":[-54.59371326290275,-25.512489691746765],"id":47,"properties":{"name":"Corsol","marker-color":"#00ff59","marker-size":"medium"}},{"type":"Point","coordinates":[-54.593280151690976,-25.510686874469144],"id":48,"properties":{"name":"Corsol","marker-color":"#00ff11","marker-size":"medium"}},{"type":"Point","coordinates":[-54.576880165930504,-25.577105939239374],"id":56,"properties":{"name":"Fresas Foz","marker-color":"#ff0000","marker-size":"medium"}},{"type":"Point","coordinates":[-54.584623933688235,-25.541339616887555],"id":50,"properties":{"name":"Moda Mista","marker-color":"#2bff00","marker-size":"medium"}},{"type":"Point","coordinates":[-54.589424302169874,-25.544642159168745],"id":57,"properties":{"name":"Delicious Lanchonete","marker-color":"#ff0000","marker-size":"medium"}},{"type":"Point","coordinates":[-52.41690909676478,-28.262770116248596],"properties":{"name":"Clinica Dal Vesco","marker-color":"#ff0000","marker-size":"medium"}},{"type":"Point","coordinates":[-54.56142780185701,-25.480773888195444],"id":53,"properties":{"name":"Turma da Gelada","marker-color":"#ff0000","marker-size":"medium"}},{"type":"Point","coordinates":[-54.486815145099754,-25.58014183157249],"id":54,"properties":{"name":"Pesque Pague Conte","marker-color":"#ff0000","marker-size":"medium"}},{"type":"Point","coordinates":[-54.575930529262266,-25.53958147647785],"id":58,"properties":{"name":"Guns Neer Pub Bar","marker-color":"#ff0000","marker-size":"medium"}},{"type":"Point","coordinates":[-54.560992054414044,-25.449581533792355],"id":56,"properties":{"name":"Daisy Materiais de Construção","marker-color":"#ff0000","marker-size":"medium"}},{"type":"Point","coordinates":[-54.541548940274865,-25.551233863730033],"id":57,"properties":{"name":"Deni Pereira da Silva & Cia Ltda","marker-color":"#ff0000","marker-size":"medium"}},{"type":"Point","coordinates":[-54.58608350645244,-25.542459273529758],"properties":{"name":"Frida Preesenes","marker-color":"#ff0000","marker-size":"medium"}},{"type":"Point","coordinates":[-54.56290134540727,-25.494296931431293],"id":59,"properties":{"name":"Comércio de Óculos Rafa Ltda.","marker-color":"#ff0000","marker-size":"medium"}},{"type":"Point","coordinates":[-54.54686896031993,-25.49457718928339],"id":62,"properties":{"name":"Churrasquinho na Brasa","marker-color":"#ff0000","marker-size":"medium"}},{"type":"Point","coordinates":[-54.587074883817564,-25.516910883934898],"id":69,"properties":{"name":"Box Alimentos","marker-color":"#ff0000","marker-size":"medium"}},{"type":"Point","coordinates":[-54.57536530151579,-25.576751617862058],"id":69,"properties":{"name":"LRB Comércio de Óculos Ltda.","marker-color":"#ff0000","marker-size":"medium"}},{"type":"Point","coordinates":[-54.58570379358525,-25.54269525106271],"id":67,"properties":{"name":"Comercio de Óculos Foz Cataratas Ltda.","marker-color":"#ff0000","marker-size":"medium"}},{"type":"Point","coordinates":[-54.58650089420182,-25.54318673931155],"id":64,"properties":{"name":"Multicapas","marker-color":"#00ff4c","marker-size":"medium"}},{"type":"Point","coordinates":[-54.53845479208769,-25.551915203396206],"id":65,"properties":{"name":"Milers Lanches","marker-color":"#ff0000","marker-size":"medium"}},{"type":"Point","coordinates":[-54.554821727133344,-25.54847222524954],"id":66,"properties":{"name":"James Bar","marker-color":"#00ff40","marker-size":"medium"}},{"type":"Point","coordinates":[-54.580445554327,-25.514088921811847],"id":70,"properties":{"name":"Rute Espetinhos","marker-color":"#ff0000","marker-size":"medium"}},{"type":"Point","coordinates":[-54.61466573746745,-25.50779046344792],"properties":{"name":"EURO AMERICA CONSULTING AND IMPORT S.A.","marker-color":"#ff0000","marker-size":"medium"}},{"type":"Point","coordinates":[-54.586107661881826,-25.54231585730679],"id":69,"properties":{"name":"Só Capas","marker-color":"#04ff00","marker-size":"medium"}},{"type":"Point","coordinates":[-54.58423901336873,-25.469475340081004],"id":70,"properties":{"name":"Maracaju Gás","marker-color":"#ff0000","marker-size":"medium"}},{"type":"Point","coordinates":[-54.57440494556553,-25.524555658642626],"id":71,"properties":{"name":"Abrapar Despachos Aduaneiros Ltda","marker-color":"#ff0000","marker-size":"medium"}},{"type":"Point","coordinates":[-54.577867619184886,-25.459103147392028],"id":72,"properties":{"name":"Neubern Engenharia em Concreto Pre Moldados Ltda","marker-color":"#ff0000","marker-size":"medium"}},{"type":"Point","coordinates":[-54.5258818059085,-25.517437432027364],"id":73,"properties":{"name":"Concreto Armado Pre-Moldados Ltda","marker-color":"#ff0000","marker-size":"medium"}},{"type":"Point","coordinates":[-54.50988990236468,-25.441747864352166],"properties":{"name":"ICLI","marker-color":"#ff0000","marker-size":"medium"}},{"type":"Point","coordinates":[-54.493603425465935,-25.60739059899811],"properties":{"name":"Helisul Taxi Aereo","marker-color":"#ff0000","marker-size":"medium"}},{"type":"Point","coordinates":[-54.58510879873728,-25.534795429310606],"id":76,"properties":{"name":"D´orsay","marker-color":"#ff0000","marker-size":"medium"}},{"type":"Point","coordinates":[-54.57767363122457,-25.49447196243409],"id":77,"properties":{"name":"Recanto da Moda","marker-color":"#ff0000","marker-size":"medium"}},{"type":"Point","coordinates":[-54.24294725485585,-25.354435970621907],"id":86,"properties":{"name":"Hospital Madre de Dio","marker-color":"#ff0000","marker-size":"medium"}},{"type":"Point","coordinates":[-54.58492723270025,-25.541552927938113],"id":83,"properties":{"name ":"Lucio Jóias","marker-color":"#ff0000","marker-size":"medium"}},{"type":"Point","coordinates":[-54.095389813593854,-25.291317986797182],"id":88,"properties":{"name":"Medfer","marker-color":"#ff0000","marker-size":"medium"}},{"type":"Point","coordinates":[-54.5865101667505,-25.548602957759513],"id":87,"properties":{"name":"Secretaria Municipal de Saúde","marker-color":"#ff0000","marker-size":"medium"}},{"type":"Point","coordinates":[-54.55589419420275,-25.517446210365208],"id":82,"properties":{"name":"Motel Libidus","marker-color":"#ff0000","marker-size":"medium"}},{"type":"Point","coordinates":[-54.58398986731177,-25.544717912636486],"id":87,"properties":{"name":"CliniCell","marker-color":"#ff0000","marker-size":"medium"}},{"type":"Point","coordinates":[-54.58457727510459,-25.51174203029464],"id":87,"properties":{"name":"Eletroeste","marker-color":"#ff0000","marker-size":"medium"}},{"type":"Point","coordinates":[-54.5748634293103,-25.490662851328736],"id":85,"properties":{"name":"Juana Maidana Turmina ME","marker-color":"#ff0000","marker-size":"medium"}},{"type":"Point","coordinates":[-54.582583459496604,-25.53600279880372],"id":86,"properties":{"name":"RC Construtora","marker-color":"#ff0000","marker-size":"medium"}},{"type":"Point","coordinates":[-54.4820927042655,-25.613226514776045],"properties":{"name":"MAGIA DA SELVA CONFECCOES LTDA.","marker-color":"#ff0000","marker-size":"medium"}},{"type":"Point","coordinates":[-54.50642189129992,-25.485631623439048],"id":88,"properties":{"name":"COMERCIO VAREJISTA LUAN GLASSES E SEMI JOIAS LTDA.","marker-color":"#00ff11","marker-size":"medium"}},{"type":"Point","coordinates":[-54.58460142697707,-25.544675183872343],"id":93,"properties":{"name":"COMERCIO DE OCULOS RODRIGUES LTDA.","marker-color":"#ff0000","marker-size":"medium"}},{"type":"Point","coordinates":[-54.57593312207513,-25.576701901927734],"id":90,"properties":{"name":"COMERCIO DE OCULOS LUAN LTDA","marker-color":"#ff0000","marker-size":"medium"}},{"type":"Point","coordinates":[-54.960659477471,-28.408460857998826],"properties":{"name":"PREFEITURA SÃO LUIZ GONZAGA","marker-color":"#ff0000","marker-size":"medium"}},{"type":"Point","coordinates":[-54.55149859409113,-25.53584694572409],"id":92,"properties":{"name":"DR. BAGUETE","marker-color":"#00ff2a","marker-size":"medium"}},{"type":"Point","coordinates":[-54.569639482577486,-25.55310731321235],"id":93,"properties":{"name":"VITTA NATURAL AV. DAS CATARATAS","marker-color":"#ff0000","marker-size":"medium"}},{"type":"Point","coordinates":[-54.5885463700034,-25.54435407578862],"id":100,"properties":{"name":"VITTA NATURAL ","marker-color":"#ff0000","marker-size":"medium"}},{"type":"Point","coordinates":[-54.5518764936498,-25.539510508409606],"id":95,"properties":{"name":"JANIOS LANCHES","marker-color":"#ff0000","marker-size":"medium"}},{"type":"Point","coordinates":[-54.552121619435866,-25.515663403674736],"id":96,"properties":{"name":"ESTAÇÃO DA BRASA","marker-color":"#ff0000","marker-size":"medium"}},{"type":"Point","coordinates":[-54.5903006949915,-25.523645006020843],"id":97,"properties":{"name":"AMERICA ESPETINHO","marker-color":"#ff0000","marker-size":"medium"}},{"type":"Point","coordinates":[-54.593626235280624,-25.5110846530106],"id":98,"properties":{"name":"TENDENCIA MODERNA","marker-color":"#00ff1e","marker-size":"medium"}},{"type":"Point","coordinates":[-54.581121460486784,-25.47720128659222],"id":99,"properties":{"name":"BIG ESPETO","marker-color":"#ff0000","marker-size":"medium"}},{"type":"Point","coordinates":[-54.57854148991113,-25.45124516144905],"properties":{"name":"SUPER PIZZA","marker-color":"#ff0000","marker-size":"medium"}},{"type":"Point","coordinates":[-54.578547134358374,-25.451255991852747],"id":101,"properties":{"name":"LOJINHA DO CELULAR","marker-color":"#ff0000","marker-size":"medium"}},{"type":"Point","coordinates":[-54.55989380321108,-25.44958069316121],"id":102,"properties":{"name":"NICE PAPELARIA","marker-color":"#00ff1e","marker-size":"medium"}},{"type":"Point","coordinates":[-54.53657057386256,-25.52093221754376],"id":103,"properties":{"name":"OTICAS POLINE MORUMBI","marker-color":"#ff0000","marker-size":"medium"}},{"type":"Point","coordinates":[-54.55959171295878,-25.494436999862472],"id":107,"properties":{"name":"CHIC COSMETICO","marker-color":"#00ff1e","marker-size":"medium"}},{"type":"Point","coordinates":[-54.49797849344202,-25.476027107540972],"id":105,"properties":{"name":"CHURRASCO DO MATHIAS","marker-color":"#ff0000","marker-size":"medium"}},{"type":"Point","coordinates":[-54.50756429936075,-25.48376935854388],"properties":{"name":"GOLD STATE SHAWARMA","marker-color":"#ff0000","marker-size":"medium"}},{"type":"Point","coordinates":[-54.58041622372318,-25.494441661785075],"id":107,"properties":{"name":"FEITO EM CASA","marker-color":"#ff0000","marker-size":"medium"}},{"type":"Point","coordinates":[-54.554166450590614,-25.53573708028894],"id":108,"properties":{"name":"JECA ESPETINHO","marker-color":"#00ff2a","marker-size":"medium"}},{"type":"Point","coordinates":[-54.56943033685583,-25.57717397606025],"properties":{"name":"MC MOVEIS","marker-color":"#ff0000","marker-size":"medium"}},{"type":"Point","coordinates":[-54.56768501410295,-25.58199384018802],"id":113,"properties":{"name":"MERCEARIA CEARA","marker-color":"#ff0000","marker-size":"medium"}},{"type":"Point","coordinates":[-54.40125989369632,-25.443442697251683],"id":119,"properties":{"name":"MULTI CAPAS STI","marker-color":"#ff0000","marker-size":"medium"}},{"type":"Point","coordinates":[-54.561020309709875,-25.48429370484118],"id":112,"properties":{"name":"PETISCARIA DAISY","marker-color":"#ff0000","marker-size":"medium"}},{"type":"Point","coordinates":[-54.616366595026065,-25.516519760682073],"properties":{"name":"RUKASU SUSHI","marker-color":"#ff0000","marker-size":"medium"}},{"type":"Point","coordinates":[-55.089452294484076,-25.799286340609456],"properties":{"name":"FASHION COSMETICO","marker-color":"#ff0000","marker-size":"medium"}},{"type":"Point","coordinates":[-53.14702410317314,-25.94385322836692],"properties":{"name":"CANTINHO DO CEU","marker-color":"#ff0000","marker-size":"medium"}},{"type":"Point","coordinates":[-54.5705633467918,-25.571871083345528],"id":116,"properties":{"name":"SAVENNA SPORT BEACH","marker-color":"#11ff00","marker-size":"medium"}},{"type":"Point","coordinates":[-54.57830940509166,-25.450691664972553],"id":117,"properties":{"name":"super pizza","marker-color":"#ff3300","marker-size":"medium"}}]}},"arcs":[],"bbox":[-55.089452294484076,-28.408460857998826,-52.41690909676478,-25.291317986797182]}
