{
	"type": "FeatureCollection",
	"features": [
		{
			"type": "Feature",
			"properties": {
				"name": "RP Smart Desenvolvimento de Sistemas Ltda.",
				"marker-color": "#f90101",
				"marker-size": "medium"
			},
			"geometry": {
				"coordinates": [
					-54.57975640903862,
					-25.516493582588454
				],
				"type": "Point"
			}
		},
		{
			"type": "Feature",
			"properties": {
				"name": "MULTICAPAS PORTO MEIRA LTDA",
				"marker-color": "#fa0000",
				"marker-size": "medium"
			},
			"geometry": {
				"coordinates": [
					-54.57790196884832,
					-25.57673505892619
				],
				"type": "Point"
			}
		},
		{
			"type": "Feature",
			"properties": {
				"name": "(HIDRAMAR) M J E DA SILVA COMERCIO LTDA",
				"marker-color": "#ff0000",
				"marker-size": "medium"
			},
			"geometry": {
				"coordinates": [
					-54.58696413275264,
					-25.53721275972184
				],
				"type": "Point"
			}
		},
		{
			"type": "Feature",
			"properties": {
				"name": "Deck Burguer",
				"marker-color": "#ff0000",
				"marker-size": "medium"
			},
			"geometry": {
				"coordinates": [
					-54.24222914048066,
					-25.35609437756021
				],
				"type": "Point"
			}
		},
		{
			"type": "Feature",
			"properties": {
				"name": "Orla Foz Esportes",
				"marker-color": "#ff0000",
				"marker-size": "medium"
			},
			"geometry": {
				"coordinates": [
					-54.55669049063039,
					-25.540242097437614
				],
				"type": "Point"
			}
		},
		{
			"type": "Feature",
			"properties": {
				"name": "JARDIM DOS IMIGRANTES RESTAURANTE LTDA",
				"marker-color": "#ff0000",
				"marker-size": "medium"
			},
			"geometry": {
				"coordinates": [
					-54.575020742922607,
					-25.556478529525337
				],
				"type": "Point"
			}
		},
		{
			"type": "Feature",
			"properties": {
				"name": "LANCHONETE CENTENARO",
				"marker-color": "#ff0000",
				"marker-size": "medium"
			},
			"geometry": {
				"coordinates": [
					-54.54230748484713,
					-25.522197550193654
				],
				"type": "Point"
			}
		},
		{
			"type": "Feature",
			"properties": {
				"name": "CRIS ALBANO",
				"marker-color": "#ff0000",
				"marker-size": "medium"
			},
			"geometry": {
				"coordinates": [
					-54.54731362998646,
					-25.49212898970545
				],
				"type": "Point"
			}
		},
		{
			"type": "Feature",
			"properties": {
				"name": "Casa de Carne Narão",
				"marker-color": "#ff0000",
				"marker-size": "medium"
			},
			"geometry": {
				"coordinates": [
					-54.40359511041095,
					-25.439509863400276
				],
				"type": "Point"
			}
		},
		{
			"type": "Feature",
			"properties": {
				"name": "Shawarma do Papai",
				"marker-color": "#ff0000",
				"marker-size": "medium"
			},
			"geometry": {
				"coordinates": [
					-54.57526710402557,
					-25.56970904610661
				],
				"type": "Point"
			}
		},
		{
			"type": "Feature",
			"properties": {
				"name": "Gabi Jóias",
				"marker-color": "#ff0000",
				"marker-size": "medium"
			},
			"geometry": {
				"coordinates": [
					-54.5541914776868,
					-25.49420056087874
				],
				"type": "Point"
			}
		},
		{
			"type": "Feature",
			"properties": {
				"name": "Multicapas Morumbi",
				"marker-color": "#ff0000",
				"marker-size": "medium"
			},
			"geometry": {
				"coordinates": [
					-54.53639601919134,
					-25.520606070032217
				],
				"type": "Point"
			}
		},
		{
			"type": "Feature",
			"properties": {
				"name": "Boteco São Bento",
				"marker-color": "#ff0000",
				"marker-size": "medium"
			},
			"geometry": {
				"coordinates": [
					-54.57259598310971,
					-25.522382243716849
				],
				"type": "Point"
			}
		},
		{
			"type": "Feature",
			"properties": {
				"name": "Corsol",
				"marker-color": "#ff0000",
				"marker-size": "medium"
			},
			"geometry": {
				"coordinates": [
					-54.59371326290275,
					-25.512489691746766
				],
				"type": "Point"
			}
		},
		{
			"type": "Feature",
			"properties": {
				"name": "Corsol",
				"marker-color": "#ff0000",
				"marker-size": "medium"
			},
			"geometry": {
				"coordinates": [
					-54.593280151690979,
					-25.510686874469145
				],
				"type": "Point"
			}
		},
		{
			"type": "Feature",
			"properties": {
				"name": "Fresas Foz",
				"marker-color": "#ff0000",
				"marker-size": "medium"
			},
			"geometry": {
				"coordinates": [
					-54.576880165930507,
					-25.577105939239375
				],
				"type": "Point"
			}
		},
		{
			"type": "Feature",
			"properties": {
				"name": "Moda Mista",
				"marker-color": "#ff0000",
				"marker-size": "medium"
			},
			"geometry": {
				"coordinates": [
					-54.584623933688238,
					-25.541339616887556
				],
				"type": "Point"
			}
		},
		{
			"type": "Feature",
			"properties": {
				"name": "Delicious Lanchonete",
				"marker-color": "#ff0000",
				"marker-size": "medium"
			},
			"geometry": {
				"coordinates": [
					-54.589424302169877,
					-25.544642159168747
				],
				"type": "Point"
			}
		},
		{
			"type": "Feature",
			"properties": {
				"name": "Clinica Dal Vesco",
				"marker-color": "#ff0000",
				"marker-size": "medium"
			},
			"geometry": {
				"coordinates": [
					-52.41690909676478,
					-28.262770116248598
				],
				"type": "Point"
			}
		},
		{
			"type": "Feature",
			"properties": {
				"name": "Turma da Gelada",
				"marker-color": "#ff0000",
				"marker-size": "medium"
			},
			"geometry": {
				"coordinates": [
					-54.56142780185701,
					-25.480773888195445
				],
				"type": "Point"
			}
		},
		{
			"type": "Feature",
			"properties": {
				"name": "Pesque Pague Conte",
				"marker-color": "#ff0000",
				"marker-size": "medium"
			},
			"geometry": {
				"coordinates": [
					-54.486815145099757,
					-25.58014183157249
				],
				"type": "Point"
			}
		},
		{
			"type": "Feature",
			"properties": {
				"name": "Guns Neer Pub Bar",
				"marker-color": "#ff0000",
				"marker-size": "medium"
			},
			"geometry": {
				"coordinates": [
					-54.575930529262269,
					-25.53958147647785
				],
				"type": "Point"
			}
		},
		{
			"type": "Feature",
			"properties": {
				"name": "Daisy Materiais de Construção",
				"marker-color": "#ff0000",
				"marker-size": "medium"
			},
			"geometry": {
				"coordinates": [
					-54.560992054414047,
					-25.449581533792356
				],
				"type": "Point"
			}
		},
		{
			"type": "Feature",
			"properties": {
				"name": "Deni Pereira da Silva & Cia Ltda",
				"marker-color": "#ff0000",
				"marker-size": "medium"
			},
			"geometry": {
				"coordinates": [
					-54.541548940274868,
					-25.551233863730034
				],
				"type": "Point"
			}
		},
		{
			"type": "Feature",
			"properties": {
				"name": "Frida Preesenes",
				"marker-color": "#ff0000",
				"marker-size": "medium"
			},
			"geometry": {
				"coordinates": [
					-54.58608350645244,
					-25.542459273529759
				],
				"type": "Point"
			}
		},
		{
			"type": "Feature",
			"properties": {
				"name": "Comércio de Óculos Rafa Ltda.",
				"marker-color": "#ff0000",
				"marker-size": "medium"
			},
			"geometry": {
				"coordinates": [
					-54.56290134540727,
					-25.494296931431295
				],
				"type": "Point"
			}
		},
		{
			"type": "Feature",
			"properties": {
				"name": "Churrasquinho na Brasa",
				"marker-color": "#ff0000",
				"marker-size": "medium"
			},
			"geometry": {
				"coordinates": [
					-54.54686896031993,
					-25.49457718928339
				],
				"type": "Point"
			}
		},
		{
			"type": "Feature",
			"properties": {
				"name": "Box Alimentos",
				"marker-color": "#ff0000",
				"marker-size": "medium"
			},
			"geometry": {
				"coordinates": [
					-54.587074883817567,
					-25.516910883934899
				],
				"type": "Point"
			}
		},
		{
			"type": "Feature",
			"properties": {
				"name": "LRB Comércio de Óculos Ltda.",
				"marker-color": "#ff0000",
				"marker-size": "medium"
			},
			"geometry": {
				"coordinates": [
					-54.57536530151579,
					-25.576751617862059
				],
				"type": "Point"
			}
		},
		{
			"type": "Feature",
			"properties": {
				"name": "Comercio de Óculos Foz Cataratas Ltda.",
				"marker-color": "#ff0000",
				"marker-size": "medium"
			},
			"geometry": {
				"coordinates": [
					-54.58570379358525,
					-25.54269525106271
				],
				"type": "Point"
			}
		},
		{
			"type": "Feature",
			"properties": {
				"name": "Multicapas",
				"marker-color": "#ff0000",
				"marker-size": "medium"
			},
			"geometry": {
				"coordinates": [
					-54.58650089420182,
					-25.54318673931155
				],
				"type": "Point"
			}
		},
		{
			"type": "Feature",
			"properties": {
				"name": "MapCell",
				"marker-color": "#ff0000",
				"marker-size": "medium"
			},
			"geometry": {
				"coordinates": [
					-54.5846303731407,
					-25.54118824949795
				],
				"type": "Point"
			}
		},
		{
			"type": "Feature",
			"properties": {
				"name": "Milers Lanches",
				"marker-color": "#ff0000",
				"marker-size": "medium"
			},
			"geometry": {
				"coordinates": [
					-54.53845479208769,
					-25.551915203396207
				],
				"type": "Point"
			}
		},
		{
			"type": "Feature",
			"properties": {
				"name": "James Bar",
				"marker-color": "#ff0000",
				"marker-size": "medium"
			},
			"geometry": {
				"coordinates": [
					-54.554821727133347,
					-25.54847222524954
				],
				"type": "Point"
			}
		},
		{
			"type": "Feature",
			"properties": {
				"name": "Rute Espetinhos",
				"marker-color": "#ff0000",
				"marker-size": "medium"
			},
			"geometry": {
				"coordinates": [
					-54.580445554327,
					-25.514088921811849
				],
				"type": "Point"
			}
		},
		{
			"type": "Feature",
			"properties": {
				"name": "EURO AMERICA CONSULTING AND IMPORT S.A.",
				"marker-color": "#ff0000",
				"marker-size": "medium"
			},
			"geometry": {
				"coordinates": [
					-54.61466573746745,
					-25.50779046344792
				],
				"type": "Point"
			}
		},
		{
			"type": "Feature",
			"properties": {
				"name": "Só Capas",
				"marker-color": "#ff0000",
				"marker-size": "medium"
			},
			"geometry": {
				"coordinates": [
					-54.586107661881829,
					-25.54231585730679
				],
				"type": "Point"
			}
		},
		{
			"type": "Feature",
			"properties": {
				"name": "Maracaju Gás",
				"marker-color": "#ff0000",
				"marker-size": "medium"
			},
			"geometry": {
				"coordinates": [
					-54.58423901336873,
					-25.469475340081006
				],
				"type": "Point"
			}
		},
		{
			"type": "Feature",
			"properties": {
				"name": "Abrapar Despachos Aduaneiros Ltda",
				"marker-color": "#ff0000",
				"marker-size": "medium"
			},
			"geometry": {
				"coordinates": [
					-54.57440494556553,
					-25.524555658642627
				],
				"type": "Point"
			}
		},
		{
			"type": "Feature",
			"properties": {
				"name": "RP Smart Desenvolvimento de Sistemas Ltda.",
				"marker-color": "#f90101",
				"marker-size": "medium"
			},
			"geometry": {
				"coordinates": [
					-54.57975640903862,
					-25.516493582588454
				],
				"type": "Point"
			},
			"id": 39
		},
		{
			"type": "Feature",
			"properties": {
				"name": "MULTICAPAS PORTO MEIRA LTDA",
				"marker-color": "#fa0000",
				"marker-size": "medium"
			},
			"geometry": {
				"coordinates": [
					-54.57790196884832,
					-25.57673505892619
				],
				"type": "Point"
			},
			"id": 42
		},
		{
			"type": "Feature",
			"properties": {
				"name": "(HIDRAMAR) M J E DA SILVA COMERCIO LTDA",
				"marker-color": "#ff0000",
				"marker-size": "medium"
			},
			"geometry": {
				"coordinates": [
					-54.58696413275264,
					-25.53721275972184
				],
				"type": "Point"
			},
			"id": 42
		},
		{
			"type": "Feature",
			"properties": {
				"name": "Deck Burguer",
				"marker-color": "#ff0000",
				"marker-size": "medium"
			},
			"geometry": {
				"coordinates": [
					-54.24222914048066,
					-25.35609437756021
				],
				"type": "Point"
			},
			"id": 44
		},
		{
			"type": "Feature",
			"properties": {
				"name": "Orla Foz Esportes",
				"marker-color": "#ff0000",
				"marker-size": "medium"
			},
			"geometry": {
				"coordinates": [
					-54.55669049063039,
					-25.540242097437614
				],
				"type": "Point"
			},
			"id": 44
		},
		{
			"type": "Feature",
			"properties": {
				"name": "JARDIM DOS IMIGRANTES RESTAURANTE LTDA",
				"marker-color": "#ff0000",
				"marker-size": "medium"
			},
			"geometry": {
				"coordinates": [
					-54.575020742922607,
					-25.556478529525337
				],
				"type": "Point"
			},
			"id": 45
		},
		{
			"type": "Feature",
			"properties": {
				"name": "LANCHONETE CENTENARO",
				"marker-color": "#ff0000",
				"marker-size": "medium"
			},
			"geometry": {
				"coordinates": [
					-54.54230748484713,
					-25.522197550193654
				],
				"type": "Point"
			},
			"id": 47
		},
		{
			"type": "Feature",
			"properties": {
				"name": "Casa de Carne Narão",
				"marker-color": "#ff0000",
				"marker-size": "medium"
			},
			"geometry": {
				"coordinates": [
					-54.40359511041095,
					-25.439509863400276
				],
				"type": "Point"
			},
			"id": 48
		},
		{
			"type": "Feature",
			"properties": {
				"name": "Shawarma do Papai",
				"marker-color": "#ff0000",
				"marker-size": "medium"
			},
			"geometry": {
				"coordinates": [
					-54.57526710402557,
					-25.56970904610661
				],
				"type": "Point"
			},
			"id": 49
		},
		{
			"type": "Feature",
			"properties": {
				"name": "Fabi Jóias",
				"marker-color": "#ff0000",
				"marker-size": "medium"
			},
			"geometry": {
				"coordinates": [
					-54.5541914776868,
					-25.49420056087874
				],
				"type": "Point"
			},
			"id": 48
		},
		{
			"type": "Feature",
			"properties": {
				"name": "Multicapas Morumbi",
				"marker-color": "#ff0000",
				"marker-size": "medium"
			},
			"geometry": {
				"coordinates": [
					-54.53639601919134,
					-25.520606070032217
				],
				"type": "Point"
			},
			"id": 53
		},
		{
			"type": "Feature",
			"properties": {
				"name": "Boteco São Bento",
				"marker-color": "#ff0000",
				"marker-size": "medium"
			},
			"geometry": {
				"coordinates": [
					-54.57259598310971,
					-25.522382243716849
				],
				"type": "Point"
			},
			"id": 53
		},
		{
			"type": "Feature",
			"properties": {
				"name": "Corsol",
				"marker-color": "#ff0000",
				"marker-size": "medium"
			},
			"geometry": {
				"coordinates": [
					-54.59371326290275,
					-25.512489691746766
				],
				"type": "Point"
			},
			"id": 51
		},
		{
			"type": "Feature",
			"properties": {
				"name": "Corsol",
				"marker-color": "#ff0000",
				"marker-size": "medium"
			},
			"geometry": {
				"coordinates": [
					-54.593280151690979,
					-25.510686874469145
				],
				"type": "Point"
			},
			"id": 52
		},
		{
			"type": "Feature",
			"properties": {
				"name": "Fresas Foz",
				"marker-color": "#ff0000",
				"marker-size": "medium"
			},
			"geometry": {
				"coordinates": [
					-54.576880165930507,
					-25.577105939239375
				],
				"type": "Point"
			},
			"id": 56
		},
		{
			"type": "Feature",
			"properties": {
				"name": "Moda Mista",
				"marker-color": "#ff0000",
				"marker-size": "medium"
			},
			"geometry": {
				"coordinates": [
					-54.584623933688238,
					-25.541339616887556
				],
				"type": "Point"
			}
		},
		{
			"type": "Feature",
			"properties": {
				"name": "Delicious Lanchonete",
				"marker-color": "#ff0000",
				"marker-size": "medium"
			},
			"geometry": {
				"coordinates": [
					-54.589424302169877,
					-25.544642159168747
				],
				"type": "Point"
			},
			"id": 57
		},
		{
			"type": "Feature",
			"properties": {
				"name": "Clinica Dal Vesco",
				"marker-color": "#ff0000",
				"marker-size": "medium"
			},
			"geometry": {
				"coordinates": [
					-52.41690909676478,
					-28.262770116248598
				],
				"type": "Point"
			}
		},
		{
			"type": "Feature",
			"properties": {
				"name": "Turma da Gelada",
				"marker-color": "#ff0000",
				"marker-size": "medium"
			},
			"geometry": {
				"coordinates": [
					-54.56142780185701,
					-25.480773888195445
				],
				"type": "Point"
			},
			"id": 60
		},
		{
			"type": "Feature",
			"properties": {
				"name": "Pesque Pague Conte",
				"marker-color": "#ff0000",
				"marker-size": "medium"
			},
			"geometry": {
				"coordinates": [
					-54.486815145099757,
					-25.58014183157249
				],
				"type": "Point"
			}
		},
		{
			"type": "Feature",
			"properties": {
				"name": "Guns Neer Pub Bar",
				"marker-color": "#ff0000",
				"marker-size": "medium"
			},
			"geometry": {
				"coordinates": [
					-54.575930529262269,
					-25.53958147647785
				],
				"type": "Point"
			},
			"id": 59
		},
		{
			"type": "Feature",
			"properties": {
				"name": "Daisy Materiais de Construção",
				"marker-color": "#ff0000",
				"marker-size": "medium"
			},
			"geometry": {
				"coordinates": [
					-54.560992054414047,
					-25.449581533792356
				],
				"type": "Point"
			},
			"id": 64
		},
		{
			"type": "Feature",
			"properties": {
				"name": "Deni Pereira da Silva & Cia Ltda",
				"marker-color": "#ff0000",
				"marker-size": "medium"
			},
			"geometry": {
				"coordinates": [
					-54.541548940274868,
					-25.551233863730034
				],
				"type": "Point"
			},
			"id": 65
		},
		{
			"type": "Feature",
			"properties": {
				"name": "Frida Preesenes",
				"marker-color": "#ff0000",
				"marker-size": "medium"
			},
			"geometry": {
				"coordinates": [
					-54.58608350645244,
					-25.542459273529759
				],
				"type": "Point"
			}
		},
		{
			"type": "Feature",
			"properties": {
				"name": "Comércio de Óculos Rafa Ltda.",
				"marker-color": "#ff0000",
				"marker-size": "medium"
			},
			"geometry": {
				"coordinates": [
					-54.56290134540727,
					-25.494296931431295
				],
				"type": "Point"
			},
			"id": 63
		},
		{
			"type": "Feature",
			"properties": {
				"name": "Churrasquinho na Brasa",
				"marker-color": "#ff0000",
				"marker-size": "medium"
			},
			"geometry": {
				"coordinates": [
					-54.54686896031993,
					-25.49457718928339
				],
				"type": "Point"
			},
			"id": 64
		},
		{
			"type": "Feature",
			"properties": {
				"name": "Box Alimentos",
				"marker-color": "#ff0000",
				"marker-size": "medium"
			},
			"geometry": {
				"coordinates": [
					-54.587074883817567,
					-25.516910883934899
				],
				"type": "Point"
			},
			"id": 69
		},
		{
			"type": "Feature",
			"properties": {
				"name": "LRB Comércio de Óculos Ltda.",
				"marker-color": "#ff0000",
				"marker-size": "medium"
			},
			"geometry": {
				"coordinates": [
					-54.57536530151579,
					-25.576751617862059
				],
				"type": "Point"
			},
			"id": 69
		},
		{
			"type": "Feature",
			"properties": {
				"name": "Comercio de Óculos Foz Cataratas Ltda.",
				"marker-color": "#ff0000",
				"marker-size": "medium"
			},
			"geometry": {
				"coordinates": [
					-54.58570379358525,
					-25.54269525106271
				],
				"type": "Point"
			},
			"id": 67
		},
		{
			"type": "Feature",
			"properties": {
				"name": "Multicapas",
				"marker-color": "#ff0000",
				"marker-size": "medium"
			},
			"geometry": {
				"coordinates": [
					-54.58650089420182,
					-25.54318673931155
				],
				"type": "Point"
			},
			"id": 70
		},
		{
			"type": "Feature",
			"properties": {
				"name": "Milers Lanches",
				"marker-color": "#ff0000",
				"marker-size": "medium"
			},
			"geometry": {
				"coordinates": [
					-54.53845479208769,
					-25.551915203396207
				],
				"type": "Point"
			},
			"id": 74
		},
		{
			"type": "Feature",
			"properties": {
				"name": "James Bar",
				"marker-color": "#ff0000",
				"marker-size": "medium"
			},
			"geometry": {
				"coordinates": [
					-54.554821727133347,
					-25.54847222524954
				],
				"type": "Point"
			},
			"id": 71
		},
		{
			"type": "Feature",
			"properties": {
				"name": "Rute Espetinhos",
				"marker-color": "#ff0000",
				"marker-size": "medium"
			},
			"geometry": {
				"coordinates": [
					-54.580445554327,
					-25.514088921811849
				],
				"type": "Point"
			},
			"id": 71
		},
		{
			"type": "Feature",
			"properties": {
				"name": "EURO AMERICA CONSULTING AND IMPORT S.A.",
				"marker-color": "#ff0000",
				"marker-size": "medium"
			},
			"geometry": {
				"coordinates": [
					-54.61466573746745,
					-25.50779046344792
				],
				"type": "Point"
			}
		},
		{
			"type": "Feature",
			"properties": {
				"name": "Só Capas",
				"marker-color": "#ff0000",
				"marker-size": "medium"
			},
			"geometry": {
				"coordinates": [
					-54.586107661881829,
					-25.54231585730679
				],
				"type": "Point"
			}
		},
		{
			"type": "Feature",
			"properties": {
				"name": "Maracaju Gás",
				"marker-color": "#ff0000",
				"marker-size": "medium"
			},
			"geometry": {
				"coordinates": [
					-54.58423901336873,
					-25.469475340081006
				],
				"type": "Point"
			}
		},
		{
			"type": "Feature",
			"properties": {
				"name": "Abrapar Despachos Aduaneiros Ltda",
				"marker-color": "#ff0000",
				"marker-size": "medium"
			},
			"geometry": {
				"coordinates": [
					-54.57440494556553,
					-25.524555658642627
				],
				"type": "Point"
			},
			"id": 75
		},
		{
			"type": "Feature",
			"properties": {
				"name": "Neubern Engenharia em Concreto Pre Moldados Ltda",
				"marker-color": "#ff0000",
				"marker-size": "medium"
			},
			"geometry": {
				"coordinates": [
					-54.577867619184889,
					-25.459103147392029
				],
				"type": "Point"
			},
			"id": 80
		},
		{
			"type": "Feature",
			"properties": {
				"name": "Concreto Armado Pre-Moldados Ltda",
				"marker-color": "#ff0000",
				"marker-size": "medium"
			},
			"geometry": {
				"coordinates": [
					-54.5258818059085,
					-25.517437432027366
				],
				"type": "Point"
			}
		},
		{
			"type": "Feature",
			"properties": {
				"name": "ICLI",
				"marker-color": "#ff0000",
				"marker-size": "medium"
			},
			"geometry": {
				"coordinates": [
					-54.50988990236468,
					-25.441747864352167
				],
				"type": "Point"
			}
		},
		{
			"type": "Feature",
			"properties": {
				"name": "Helisul Taxi Aereo",
				"marker-color": "#ff0000",
				"marker-size": "medium"
			},
			"geometry": {
				"coordinates": [
					-54.493603425465938,
					-25.60739059899811
				],
				"type": "Point"
			}
		},
		{
			"type": "Feature",
			"properties": {
				"name": "D´orsay",
				"marker-color": "#ff0000",
				"marker-size": "medium"
			},
			"geometry": {
				"coordinates": [
					-54.58510879873728,
					-25.534795429310607
				],
				"type": "Point"
			}
		},
		{
			"type": "Feature",
			"properties": {
				"name": "Recanto da Moda",
				"marker-color": "#ff0000",
				"marker-size": "medium"
			},
			"geometry": {
				"coordinates": [
					-54.57767363122457,
					-25.49447196243409
				],
				"type": "Point"
			},
			"id": 81
		},
		{
			"type": "Feature",
			"properties": {
				"name": "Hospital Madre de Dio",
				"marker-color": "#ff0000",
				"marker-size": "medium"
			},
			"geometry": {
				"coordinates": [
					-54.24294725485585,
					-25.354435970621908
				],
				"type": "Point"
			},
			"id": 86
		},
		{
			"type": "Feature",
			"properties": {
				"name ": "Lucio Jóias",
				"marker-color": "#ff0000",
				"marker-size": "medium"
			},
			"geometry": {
				"coordinates": [
					-54.58492723270025,
					-25.541552927938115
				],
				"type": "Point"
			},
			"id": 86
		},
		{
			"type": "Feature",
			"properties": {
				"name": "Medfer",
				"marker-color": "#ff0000",
				"marker-size": "medium"
			},
			"geometry": {
				"coordinates": [
					-54.095389813593858,
					-25.291317986797183
				],
				"type": "Point"
			},
			"id": 88
		},
		{
			"type": "Feature",
			"properties": {
				"name": "Secretaria Municipal de Saúde",
				"marker-color": "#ff0000",
				"marker-size": "medium"
			},
			"geometry": {
				"coordinates": [
					-54.5865101667505,
					-25.548602957759515
				],
				"type": "Point"
			},
			"id": 87
		},
		{
			"type": "Feature",
			"properties": {
				"name": "Motel Libidus",
				"marker-color": "#ff0000",
				"marker-size": "medium"
			},
			"geometry": {
				"coordinates": [
					-54.55589419420275,
					-25.517446210365209
				],
				"type": "Point"
			},
			"id": 90
		},
		{
			"type": "Feature",
			"properties": {
				"name": "CliniCell",
				"marker-color": "#ff0000",
				"marker-size": "medium"
			},
			"geometry": {
				"coordinates": [
					-54.58398986731177,
					-25.544717912636487
				],
				"type": "Point"
			},
			"id": 87
		},
		{
			"type": "Feature",
			"properties": {
				"name": "Eletroeste",
				"marker-color": "#ff0000",
				"marker-size": "medium"
			},
			"geometry": {
				"coordinates": [
					-54.58457727510459,
					-25.51174203029464
				],
				"type": "Point"
			},
			"id": 88
		},
		{
			"type": "Feature",
			"properties": {
				"name": "Juana Maidana Turmina ME",
				"marker-color": "#ff0000",
				"marker-size": "medium"
			},
			"geometry": {
				"coordinates": [
					-54.5748634293103,
					-25.490662851328737
				],
				"type": "Point"
			},
			"id": 89
		},
		{
			"type": "Feature",
			"properties": {
				"name": "RC Construtora",
				"marker-color": "#ff0000",
				"marker-size": "medium"
			},
			"geometry": {
				"coordinates": [
					-54.582583459496607,
					-25.53600279880372
				],
				"type": "Point"
			},
			"id": 91
		},
		{
			"type": "Feature",
			"properties": {
				"name": "MAGIA DA SELVA CONFECCOES LTDA.",
				"marker-color": "#ff0000",
				"marker-size": "medium"
			},
			"geometry": {
				"coordinates": [
					-54.4820927042655,
					-25.613226514776046
				],
				"type": "Point"
			}
		},
		{
			"type": "Feature",
			"properties": {
				"name": "COMERCIO VAREJISTA LUAN GLASSES E SEMI JOIAS LTDA.",
				"marker-color": "#ff0000",
				"marker-size": "medium"
			},
			"geometry": {
				"coordinates": [
					-54.50642189129992,
					-25.485631623439049
				],
				"type": "Point"
			}
		},
		{
			"type": "Feature",
			"properties": {
				"name": "COMERCIO DE OCULOS RODRIGUES LTDA.",
				"marker-color": "#ff0000",
				"marker-size": "medium"
			},
			"geometry": {
				"coordinates": [
					-54.58460142697707,
					-25.544675183872344
				],
				"type": "Point"
			},
			"id": 93
		},
		{
			"type": "Feature",
			"properties": {
				"name": "COMERCIO DE OCULOS LUAN LTDA",
				"marker-color": "#ff0000",
				"marker-size": "medium"
			},
			"geometry": {
				"coordinates": [
					-54.57593312207513,
					-25.576701901927735
				],
				"type": "Point"
			},
			"id": 98
		},
		{
			"type": "Feature",
			"properties": {
				"name": "PREFEITURA SÃO LUIZ GONZAGA",
				"marker-color": "#ff0000",
				"marker-size": "medium"
			},
			"geometry": {
				"coordinates": [
					-54.960659477471,
					-28.408460857998827
				],
				"type": "Point"
			}
		},
		{
			"type": "Feature",
			"properties": {
				"name": "DR. BAGUETE",
				"marker-color": "#ff0000",
				"marker-size": "medium"
			},
			"geometry": {
				"coordinates": [
					-54.55149859409113,
					-25.53584694572409
				],
				"type": "Point"
			},
			"id": 100
		},
		{
			"type": "Feature",
			"properties": {
				"name": "VITTA NATURAL AV. DAS CATARATAS",
				"marker-color": "#ff0000",
				"marker-size": "medium"
			},
			"geometry": {
				"coordinates": [
					-54.569639482577489,
					-25.55310731321235
				],
				"type": "Point"
			},
			"id": 98
		},
		{
			"type": "Feature",
			"properties": {
				"name": "VITTA NATURAL ",
				"marker-color": "#ff0000",
				"marker-size": "medium"
			},
			"geometry": {
				"coordinates": [
					-54.5885463700034,
					-25.54435407578862
				],
				"type": "Point"
			},
			"id": 100
		},
		{
			"type": "Feature",
			"properties": {
				"name": "JANIOS LANCHES",
				"marker-color": "#ff0000",
				"marker-size": "medium"
			},
			"geometry": {
				"coordinates": [
					-54.5518764936498,
					-25.539510508409607
				],
				"type": "Point"
			},
			"id": 104
		},
		{
			"type": "Feature",
			"properties": {
				"name": "ESTAÇÃO DA BRASA",
				"marker-color": "#ff0000",
				"marker-size": "medium"
			},
			"geometry": {
				"coordinates": [
					-54.552121619435869,
					-25.515663403674738
				],
				"type": "Point"
			},
			"id": 104
		},
		{
			"type": "Feature",
			"properties": {
				"name": "AMERICA ESPETINHO",
				"marker-color": "#ff0000",
				"marker-size": "medium"
			},
			"geometry": {
				"coordinates": [
					-54.5903006949915,
					-25.523645006020844
				],
				"type": "Point"
			},
			"id": 101
		},
		{
			"type": "Feature",
			"properties": {
				"name": "TENDENCIA MODERNA",
				"marker-color": "#ff0000",
				"marker-size": "medium"
			},
			"geometry": {
				"coordinates": [
					-54.593626235280627,
					-25.5110846530106
				],
				"type": "Point"
			},
			"id": 102
		},
		{
			"type": "Feature",
			"properties": {
				"name": "BIG ESPETO",
				"marker-color": "#ff0000",
				"marker-size": "medium"
			},
			"geometry": {
				"coordinates": [
					-54.581121460486787,
					-25.47720128659222
				],
				"type": "Point"
			},
			"id": 103
		},
		{
			"type": "Feature",
			"properties": {
				"name": "SUPER PIZZA",
				"marker-color": "#ff0000",
				"marker-size": "medium"
			},
			"geometry": {
				"coordinates": [
					-54.57854148991113,
					-25.45124516144905
				],
				"type": "Point"
			}
		},
		{
			"type": "Feature",
			"properties": {
				"name": "LOJINHA DO CELULAR",
				"marker-color": "#ff0000",
				"marker-size": "medium"
			},
			"geometry": {
				"coordinates": [
					-54.578547134358377,
					-25.451255991852749
				],
				"type": "Point"
			}
		},
		{
			"type": "Feature",
			"properties": {
				"name": "NICE PAPELARIA",
				"marker-color": "#ff0000",
				"marker-size": "medium"
			},
			"geometry": {
				"coordinates": [
					-54.55989380321108,
					-25.44958069316121
				],
				"type": "Point"
			}
		},
		{
			"type": "Feature",
			"properties": {
				"name": "OTICAS POLINE MORUMBI",
				"marker-color": "#ff0000",
				"marker-size": "medium"
			},
			"geometry": {
				"coordinates": [
					-54.53657057386256,
					-25.52093221754376
				],
				"type": "Point"
			}
		},
		{
			"type": "Feature",
			"properties": {
				"name": "CHIC COSMETICO",
				"marker-color": "#ff0000",
				"marker-size": "medium"
			},
			"geometry": {
				"coordinates": [
					-54.55959171295878,
					-25.494436999862474
				],
				"type": "Point"
			},
			"id": 108
		},
		{
			"type": "Feature",
			"properties": {
				"name": "CHURRASCO DO MATHIAS",
				"marker-color": "#ff0000",
				"marker-size": "medium"
			},
			"geometry": {
				"coordinates": [
					-54.49797849344202,
					-25.476027107540973
				],
				"type": "Point"
			}
		},
		{
			"type": "Feature",
			"properties": {
				"name": "GOLD STATE SHAWARMA",
				"marker-color": "#ff0000",
				"marker-size": "medium"
			},
			"geometry": {
				"coordinates": [
					-54.50756429936075,
					-25.48376935854388
				],
				"type": "Point"
			}
		},
		{
			"type": "Feature",
			"properties": {
				"name": "FEITO EM CASA",
				"marker-color": "#ff0000",
				"marker-size": "medium"
			},
			"geometry": {
				"coordinates": [
					-54.58041622372318,
					-25.494441661785076
				],
				"type": "Point"
			},
			"id": 111
		},
		{
			"type": "Feature",
			"properties": {
				"name": "JECA ESPETINHO",
				"marker-color": "#ff0000",
				"marker-size": "medium"
			},
			"geometry": {
				"coordinates": [
					-54.554166450590617,
					-25.53573708028894
				],
				"type": "Point"
			}
		},
		{
			"type": "Feature",
			"properties": {
				"name": "MC MOVEIS",
				"marker-color": "#ff0000",
				"marker-size": "medium"
			},
			"geometry": {
				"coordinates": [
					-54.56943033685583,
					-25.57717397606025
				],
				"type": "Point"
			}
		},
		{
			"type": "Feature",
			"properties": {
				"name": "MERCEARIA CEARA",
				"marker-color": "#ff0000",
				"marker-size": "medium"
			},
			"geometry": {
				"coordinates": [
					-54.56768501410295,
					-25.58199384018802
				],
				"type": "Point"
			},
			"id": 118
		},
		{
			"type": "Feature",
			"properties": {
				"name": "MULTI CAPAS STI",
				"marker-color": "#ff0000",
				"marker-size": "medium"
			},
			"geometry": {
				"coordinates": [
					-54.40125989369632,
					-25.443442697251684
				],
				"type": "Point"
			},
			"id": 119
		},
		{
			"type": "Feature",
			"properties": {
				"name": "PETISCARIA DAISY",
				"marker-color": "#ff0000",
				"marker-size": "medium"
			},
			"geometry": {
				"coordinates": [
					-54.561020309709878,
					-25.48429370484118
				],
				"type": "Point"
			}
		},
		{
			"type": "Feature",
			"properties": {
				"name": "RUKASU SUSHI",
				"marker-color": "#ff0000",
				"marker-size": "medium"
			},
			"geometry": {
				"coordinates": [
					-54.616366595026068,
					-25.516519760682074
				],
				"type": "Point"
			}
		},
		{
			"type": "Feature",
			"properties": {
				"name": "FASHION COSMETICO",
				"marker-color": "#ff0000",
				"marker-size": "medium"
			},
			"geometry": {
				"coordinates": [
					-55.089452294484079,
					-25.799286340609457
				],
				"type": "Point"
			}
		},
		{
			"type": "Feature",
			"properties": {
				"name": "CANTINHO DO CEU",
				"marker-color": "#ff0000",
				"marker-size": "medium"
			},
			"geometry": {
				"coordinates": [
					-53.14702410317314,
					-25.94385322836692
				],
				"type": "Point"
			}
		}
	]
}
