{
  "type": "FeatureCollection",
  "features": [
    {
      "type": "Feature",
      "properties": {
        "name": "RP Smart Desenvolvimento de Sistemas Ltda.",
        "marker-color": "#f90101",
        "marker-size": "medium"
      },
      "geometry": {
        "coordinates": [
          -54.57975640903862,
          -25.516493582588453
        ],
        "type": "Point"
      }
    },
    {
      "type": "Feature",
      "properties": {
        "name": "MULTICAPAS PORTO MEIRA LTDA",
        "marker-color": "#fa0000",
        "marker-size": "medium"
      },
      "geometry": {
        "coordinates": [
          -54.57790196884832,
          -25.57673505892619
        ],
        "type": "Point"
      }
    },
    {
      "type": "Feature",
      "properties": {
        "name": "(HIDRAMAR) M J E DA SILVA COMERCIO LTDA",
        "marker-color": "#ff0000",
        "marker-size": "medium"
      },
      "geometry": {
        "coordinates": [
          -54.58696413275264,
          -25.53721275972184
        ],
        "type": "Point"
      }
    },
    {
      "type": "Feature",
      "properties": {
        "name": "Deck Burguer",
        "marker-color": "#ff0000",
        "marker-size": "medium"
      },
      "geometry": {
        "coordinates": [
          -54.24222914048066,
          -25.35609437756021
        ],
        "type": "Point"
      }
    },
    {
      "type": "Feature",
      "properties": {
        "name": "Orla Foz Esportes",
        "marker-color": "#ff0000",
        "marker-size": "medium"
      },
      "geometry": {
        "coordinates": [
          -54.55669049063039,
          -25.540242097437613
        ],
        "type": "Point"
      }
    },
    {
      "type": "Feature",
      "properties": {
        "name": "JARDIM DOS IMIGRANTES RESTAURANTE LTDA",
        "marker-color": "#ff0000",
        "marker-size": "medium"
      },
      "geometry": {
        "coordinates": [
          -54.575020742922604,
          -25.556478529525336
        ],
        "type": "Point"
      }
    },
    {
      "type": "Feature",
      "properties": {
        "name": "LANCHONETE CENTENARO",
        "marker-color": "#ff0000",
        "marker-size": "medium"
      },
      "geometry": {
        "coordinates": [
          -54.54230748484713,
          -25.522197550193653
        ],
        "type": "Point"
      }
    },
    {
      "type": "Feature",
      "properties": {
        "name": "CRIS ALBANO",
        "marker-color": "#ff0000",
        "marker-size": "medium"
      },
      "geometry": {
        "coordinates": [
          -54.54731362998646,
          -25.49212898970545
        ],
        "type": "Point"
      }
    },
    {
      "type": "Feature",
      "properties": {
        "name": "Casa de Carne Narão",
        "marker-color": "#ff0000",
        "marker-size": "medium"
      },
      "geometry": {
        "coordinates": [
          -54.40359511041095,
          -25.439509863400275
        ],
        "type": "Point"
      }
    },
    {
      "type": "Feature",
      "properties": {
        "name": "Shawarma do Papai",
        "marker-color": "#ff0000",
        "marker-size": "medium"
      },
      "geometry": {
        "coordinates": [
          -54.57526710402557,
          -25.56970904610661
        ],
        "type": "Point"
      }
    },
    {
      "type": "Feature",
      "properties": {
        "name": "Equilibrando Jóias",
        "marker-color": "#ff0000",
        "marker-size": "medium"
      },
      "geometry": {
        "coordinates": [
          -54.57304584279268,
          -25.528156614958036
        ],
        "type": "Point"
      }
    },
    {
      "type": "Feature",
      "properties": {
        "name": "Falls Garage Pub",
        "marker-color": "#ff0000",
        "marker-size": "medium"
      },
      "geometry": {
        "coordinates": [
          -54.57654032586957,
          -25.54460776857755
        ],
        "type": "Point"
      }
    },
    {
      "type": "Feature",
      "properties": {
        "name": "Gabi Jóias",
        "marker-color": "#ff0000",
        "marker-size": "medium"
      },
      "geometry": {
        "coordinates": [
          -54.5541914776868,
          -25.49420056087874
        ],
        "type": "Point"
      }
    },
    {
      "type": "Feature",
      "properties": {
        "name": "Multicapas Morumbi",
        "marker-color": "#ff0000",
        "marker-size": "medium"
      },
      "geometry": {
        "coordinates": [
          -54.53639601919134,
          -25.520606070032215
        ],
        "type": "Point"
      }
    },
    {
      "type": "Feature",
      "properties": {
        "name": "Boteco São Bento",
        "marker-color": "#ff0000",
        "marker-size": "medium"
      },
      "geometry": {
        "coordinates": [
          -54.57259598310971,
          -25.522382243716848
        ],
        "type": "Point"
      }
    },
    {
      "type": "Feature",
      "properties": {
        "name": "Corsol",
        "marker-color": "#ff0000",
        "marker-size": "medium"
      },
      "geometry": {
        "coordinates": [
          -54.59371326290275,
          -25.512489691746765
        ],
        "type": "Point"
      }
    },
    {
      "type": "Feature",
      "properties": {
        "name": "Corsol",
        "marker-color": "#ff0000",
        "marker-size": "medium"
      },
      "geometry": {
        "coordinates": [
          -54.593280151690976,
          -25.510686874469144
        ],
        "type": "Point"
      }
    },
    {
      "type": "Feature",
      "properties": {
        "name": "Fresas Foz",
        "marker-color": "#ff0000",
        "marker-size": "medium"
      },
      "geometry": {
        "coordinates": [
          -54.576880165930504,
          -25.577105939239374
        ],
        "type": "Point"
      }
    },
    {
      "type": "Feature",
      "properties": {
        "name": "Moda Mista",
        "marker-color": "#ff0000",
        "marker-size": "medium"
      },
      "geometry": {
        "coordinates": [
          -54.584623933688235,
          -25.541339616887555
        ],
        "type": "Point"
      }
    },
    {
      "type": "Feature",
      "properties": {
        "name": "Delicious Lanchonete",
        "marker-color": "#ff0000",
        "marker-size": "medium"
      },
      "geometry": {
        "coordinates": [
          -54.589424302169874,
          -25.544642159168745
        ],
        "type": "Point"
      }
    },
    {
      "type": "Feature",
      "properties": {
        "name": "Clinica Dal Vesco",
        "marker-color": "#ff0000",
        "marker-size": "medium"
      },
      "geometry": {
        "coordinates": [
          -52.41690909676478,
          -28.262770116248596
        ],
        "type": "Point"
      }
    },
    {
      "type": "Feature",
      "properties": {
        "name": "Turma da Gelada",
        "marker-color": "#ff0000",
        "marker-size": "medium"
      },
      "geometry": {
        "coordinates": [
          -54.56142780185701,
          -25.480773888195444
        ],
        "type": "Point"
      }
    },
    {
      "type": "Feature",
      "properties": {
        "name": "Pesque Pague Conte",
        "marker-color": "#ff0000",
        "marker-size": "medium"
      },
      "geometry": {
        "coordinates": [
          -54.486815145099754,
          -25.58014183157249
        ],
        "type": "Point"
      }
    },
    {
      "type": "Feature",
      "properties": {
        "name": "Guns Neer Pub Bar",
        "marker-color": "#ff0000",
        "marker-size": "medium"
      },
      "geometry": {
        "coordinates": [
          -54.575930529262266,
          -25.53958147647785
        ],
        "type": "Point"
      }
    },
    {
      "type": "Feature",
      "properties": {
        "name": "Daisy Materiais de Construção",
        "marker-color": "#ff0000",
        "marker-size": "medium"
      },
      "geometry": {
        "coordinates": [
          -54.560992054414044,
          -25.449581533792355
        ],
        "type": "Point"
      }
    },
    {
      "type": "Feature",
      "properties": {
        "name": "Deni Pereira da Silva & Cia Ltda",
        "marker-color": "#ff0000",
        "marker-size": "medium"
      },
      "geometry": {
        "coordinates": [
          -54.541548940274865,
          -25.551233863730033
        ],
        "type": "Point"
      }
    },
    {
      "type": "Feature",
      "properties": {
        "name": "Frida Preesenes",
        "marker-color": "#ff0000",
        "marker-size": "medium"
      },
      "geometry": {
        "coordinates": [
          -54.58608350645244,
          -25.542459273529758
        ],
        "type": "Point"
      }
    },
    {
      "type": "Feature",
      "properties": {
        "name": "Comércio de Óculos Rafa Ltda.",
        "marker-color": "#ff0000",
        "marker-size": "medium"
      },
      "geometry": {
        "coordinates": [
          -54.56290134540727,
          -25.494296931431293
        ],
        "type": "Point"
      }
    },
    {
      "type": "Feature",
      "properties": {
        "name": "Churrasquinho na Brasa",
        "marker-color": "#ff0000",
        "marker-size": "medium"
      },
      "geometry": {
        "coordinates": [
          -54.54686896031993,
          -25.49457718928339
        ],
        "type": "Point"
      }
    },
    {
      "type": "Feature",
      "properties": {
        "name": "Box Alimentos",
        "marker-color": "#ff0000",
        "marker-size": "medium"
      },
      "geometry": {
        "coordinates": [
          -54.587074883817564,
          -25.516910883934898
        ],
        "type": "Point"
      }
    },
    {
      "type": "Feature",
      "properties": {
        "name": "LRB Comércio de Óculos Ltda.",
        "marker-color": "#ff0000",
        "marker-size": "medium"
      },
      "geometry": {
        "coordinates": [
          -54.57536530151579,
          -25.576751617862058
        ],
        "type": "Point"
      }
    },
    {
      "type": "Feature",
      "properties": {
        "name": "Comercio de Óculos Foz Cataratas Ltda.",
        "marker-color": "#ff0000",
        "marker-size": "medium"
      },
      "geometry": {
        "coordinates": [
          -54.58570379358525,
          -25.54269525106271
        ],
        "type": "Point"
      }
    },
    {
      "type": "Feature",
      "properties": {
        "name": "Multicapas",
        "marker-color": "#ff0000",
        "marker-size": "medium"
      },
      "geometry": {
        "coordinates": [
          -54.58650089420182,
          -25.54318673931155
        ],
        "type": "Point"
      }
    },
    {
      "type": "Feature",
      "properties": {
        "name": "MapCell",
        "marker-color": "#ff0000",
        "marker-size": "medium"
      },
      "geometry": {
        "coordinates": [
          -54.5846303731407,
          -25.54118824949795
        ],
        "type": "Point"
      }
    },
    {
      "type": "Feature",
      "properties": {
        "name": "Milers Lanches",
        "marker-color": "#ff0000",
        "marker-size": "medium"
      },
      "geometry": {
        "coordinates": [
          -54.53845479208769,
          -25.551915203396206
        ],
        "type": "Point"
      }
    },
    {
      "type": "Feature",
      "properties": {
        "name": "James Bar",
        "marker-color": "#ff0000",
        "marker-size": "medium"
      },
      "geometry": {
        "coordinates": [
          -54.554821727133344,
          -25.54847222524954
        ],
        "type": "Point"
      }
    },
    {
      "type": "Feature",
      "properties": {
        "name": "Rute Espetinhos",
        "marker-color": "#ff0000",
        "marker-size": "medium"
      },
      "geometry": {
        "coordinates": [
          -54.580445554327,
          -25.514088921811847
        ],
        "type": "Point"
      }
    },
    {
      "type": "Feature",
      "properties": {
        "name": "EURO AMERICA CONSULTING AND IMPORT S.A.",
        "marker-color": "#ff0000",
        "marker-size": "medium"
      },
      "geometry": {
        "coordinates": [
          -54.61466573746745,
          -25.50779046344792
        ],
        "type": "Point"
      }
    },
    {
      "type": "Feature",
      "properties": {
        "name": "Só Capas",
        "marker-color": "#ff0000",
        "marker-size": "medium"
      },
      "geometry": {
        "coordinates": [
          -54.586107661881826,
          -25.54231585730679
        ],
        "type": "Point"
      }
    },
    {
      "type": "Feature",
      "properties": {
        "name": "Maracaju Gás",
        "marker-color": "#ff0000",
        "marker-size": "medium"
      },
      "geometry": {
        "coordinates": [
          -54.58423901336873,
          -25.469475340081004
        ],
        "type": "Point"
      }
    },
    {
      "type": "Feature",
      "properties": {
        "name": "Abrapar Despachos Aduaneiros Ltda",
        "marker-color": "#ff0000",
        "marker-size": "medium"
      },
      "geometry": {
        "coordinates": [
          -54.57440494556553,
          -25.524555658642626
        ],
        "type": "Point"
      }
    },
    {
      "type": "Feature",
      "properties": {
        "name": "RP Smart Desenvolvimento de Sistemas Ltda.",
        "marker-color": "#f90101",
        "marker-size": "medium"
      },
      "geometry": {
        "coordinates": [
          -54.57975640903862,
          -25.516493582588453
        ],
        "type": "Point"
      }
    },
    {
      "type": "Feature",
      "properties": {
        "name": "MULTICAPAS PORTO MEIRA LTDA",
        "marker-color": "#fa0000",
        "marker-size": "medium"
      },
      "geometry": {
        "coordinates": [
          -54.57790196884832,
          -25.57673505892619
        ],
        "type": "Point"
      }
    },
    {
      "type": "Feature",
      "properties": {
        "name": "(HIDRAMAR) M J E DA SILVA COMERCIO LTDA",
        "marker-color": "#ff0000",
        "marker-size": "medium"
      },
      "geometry": {
        "coordinates": [
          -54.58696413275264,
          -25.53721275972184
        ],
        "type": "Point"
      }
    },
    {
      "type": "Feature",
      "properties": {
        "name": "Deck Burguer",
        "marker-color": "#ff0000",
        "marker-size": "medium"
      },
      "geometry": {
        "coordinates": [
          -54.24222914048066,
          -25.35609437756021
        ],
        "type": "Point"
      }
    },
    {
      "type": "Feature",
      "properties": {
        "name": "Orla Foz Esportes",
        "marker-color": "#ff0000",
        "marker-size": "medium"
      },
      "geometry": {
        "coordinates": [
          -54.55669049063039,
          -25.540242097437613
        ],
        "type": "Point"
      }
    },
    {
      "type": "Feature",
      "properties": {
        "name": "JARDIM DOS IMIGRANTES RESTAURANTE LTDA",
        "marker-color": "#ff0000",
        "marker-size": "medium"
      },
      "geometry": {
        "coordinates": [
          -54.575020742922604,
          -25.556478529525336
        ],
        "type": "Point"
      }
    },
    {
      "type": "Feature",
      "properties": {
        "name": "LANCHONETE CENTENARO",
        "marker-color": "#ff0000",
        "marker-size": "medium"
      },
      "geometry": {
        "coordinates": [
          -54.54230748484713,
          -25.522197550193653
        ],
        "type": "Point"
      }
    },
    {
      "type": "Feature",
      "properties": {
        "name": "CRIS ALBANO",
        "marker-color": "#ff0000",
        "marker-size": "medium"
      },
      "geometry": {
        "coordinates": [
          -54.54731362998646,
          -25.49212898970545
        ],
        "type": "Point"
      }
    },
    {
      "type": "Feature",
      "properties": {
        "name": "Casa de Carne Narão",
        "marker-color": "#ff0000",
        "marker-size": "medium"
      },
      "geometry": {
        "coordinates": [
          -54.40359511041095,
          -25.439509863400275
        ],
        "type": "Point"
      }
    },
    {
      "type": "Feature",
      "properties": {
        "name": "Shawarma do Papai",
        "marker-color": "#ff0000",
        "marker-size": "medium"
      },
      "geometry": {
        "coordinates": [
          -54.57526710402557,
          -25.56970904610661
        ],
        "type": "Point"
      }
    },
    {
      "type": "Feature",
      "properties": {
        "name": "Equilibrando Jóias",
        "marker-color": "#ff0000",
        "marker-size": "medium"
      },
      "geometry": {
        "coordinates": [
          -54.57304584279268,
          -25.528156614958036
        ],
        "type": "Point"
      }
    },
    {
      "type": "Feature",
      "properties": {
        "name": "Falls Garage Pub",
        "marker-color": "#ff0000",
        "marker-size": "medium"
      },
      "geometry": {
        "coordinates": [
          -54.57654032586957,
          -25.54460776857755
        ],
        "type": "Point"
      }
    },
    {
      "type": "Feature",
      "properties": {
        "name": "Gabi Jóias",
        "marker-color": "#ff0000",
        "marker-size": "medium"
      },
      "geometry": {
        "coordinates": [
          -54.5541914776868,
          -25.49420056087874
        ],
        "type": "Point"
      }
    },
    {
      "type": "Feature",
      "properties": {
        "name": "Multicapas Morumbi",
        "marker-color": "#ff0000",
        "marker-size": "medium"
      },
      "geometry": {
        "coordinates": [
          -54.53639601919134,
          -25.520606070032215
        ],
        "type": "Point"
      }
    },
    {
      "type": "Feature",
      "properties": {
        "name": "Boteco São Bento",
        "marker-color": "#ff0000",
        "marker-size": "medium"
      },
      "geometry": {
        "coordinates": [
          -54.57259598310971,
          -25.522382243716848
        ],
        "type": "Point"
      }
    },
    {
      "type": "Feature",
      "properties": {
        "name": "Corsol",
        "marker-color": "#ff0000",
        "marker-size": "medium"
      },
      "geometry": {
        "coordinates": [
          -54.59371326290275,
          -25.512489691746765
        ],
        "type": "Point"
      }
    },
    {
      "type": "Feature",
      "properties": {
        "name": "Corsol",
        "marker-color": "#ff0000",
        "marker-size": "medium"
      },
      "geometry": {
        "coordinates": [
          -54.593280151690976,
          -25.510686874469144
        ],
        "type": "Point"
      }
    },
    {
      "type": "Feature",
      "properties": {
        "name": "Fresas Foz",
        "marker-color": "#ff0000",
        "marker-size": "medium"
      },
      "geometry": {
        "coordinates": [
          -54.576880165930504,
          -25.577105939239374
        ],
        "type": "Point"
      }
    },
    {
      "type": "Feature",
      "properties": {
        "name": "Moda Mista",
        "marker-color": "#ff0000",
        "marker-size": "medium"
      },
      "geometry": {
        "coordinates": [
          -54.584623933688235,
          -25.541339616887555
        ],
        "type": "Point"
      }
    },
    {
      "type": "Feature",
      "properties": {
        "name": "Delicious Lanchonete",
        "marker-color": "#ff0000",
        "marker-size": "medium"
      },
      "geometry": {
        "coordinates": [
          -54.589424302169874,
          -25.544642159168745
        ],
        "type": "Point"
      }
    },
    {
      "type": "Feature",
      "properties": {
        "name": "Clinica Dal Vesco",
        "marker-color": "#ff0000",
        "marker-size": "medium"
      },
      "geometry": {
        "coordinates": [
          -52.41690909676478,
          -28.262770116248596
        ],
        "type": "Point"
      }
    },
    {
      "type": "Feature",
      "properties": {
        "name": "Turma da Gelada",
        "marker-color": "#ff0000",
        "marker-size": "medium"
      },
      "geometry": {
        "coordinates": [
          -54.56142780185701,
          -25.480773888195444
        ],
        "type": "Point"
      }
    },
    {
      "type": "Feature",
      "properties": {
        "name": "Pesque Pague Conte",
        "marker-color": "#ff0000",
        "marker-size": "medium"
      },
      "geometry": {
        "coordinates": [
          -54.486815145099754,
          -25.58014183157249
        ],
        "type": "Point"
      }
    },
    {
      "type": "Feature",
      "properties": {
        "name": "Guns Neer Pub Bar",
        "marker-color": "#ff0000",
        "marker-size": "medium"
      },
      "geometry": {
        "coordinates": [
          -54.575930529262266,
          -25.53958147647785
        ],
        "type": "Point"
      }
    },
    {
      "type": "Feature",
      "properties": {
        "name": "Daisy Materiais de Construção",
        "marker-color": "#ff0000",
        "marker-size": "medium"
      },
      "geometry": {
        "coordinates": [
          -54.560992054414044,
          -25.449581533792355
        ],
        "type": "Point"
      }
    },
    {
      "type": "Feature",
      "properties": {
        "name": "Deni Pereira da Silva & Cia Ltda",
        "marker-color": "#ff0000",
        "marker-size": "medium"
      },
      "geometry": {
        "coordinates": [
          -54.541548940274865,
          -25.551233863730033
        ],
        "type": "Point"
      }
    },
    {
      "type": "Feature",
      "properties": {
        "name": "Frida Preesenes",
        "marker-color": "#ff0000",
        "marker-size": "medium"
      },
      "geometry": {
        "coordinates": [
          -54.58608350645244,
          -25.542459273529758
        ],
        "type": "Point"
      }
    },
    {
      "type": "Feature",
      "properties": {
        "name": "Comércio de Óculos Rafa Ltda.",
        "marker-color": "#ff0000",
        "marker-size": "medium"
      },
      "geometry": {
        "coordinates": [
          -54.56290134540727,
          -25.494296931431293
        ],
        "type": "Point"
      }
    },
    {
      "type": "Feature",
      "properties": {
        "name": "Churrasquinho na Brasa",
        "marker-color": "#ff0000",
        "marker-size": "medium"
      },
      "geometry": {
        "coordinates": [
          -54.54686896031993,
          -25.49457718928339
        ],
        "type": "Point"
      }
    },
    {
      "type": "Feature",
      "properties": {
        "name": "Box Alimentos",
        "marker-color": "#ff0000",
        "marker-size": "medium"
      },
      "geometry": {
        "coordinates": [
          -54.587074883817564,
          -25.516910883934898
        ],
        "type": "Point"
      }
    },
    {
      "type": "Feature",
      "properties": {
        "name": "LRB Comércio de Óculos Ltda.",
        "marker-color": "#ff0000",
        "marker-size": "medium"
      },
      "geometry": {
        "coordinates": [
          -54.57536530151579,
          -25.576751617862058
        ],
        "type": "Point"
      }
    },
    {
      "type": "Feature",
      "properties": {
        "name": "Comercio de Óculos Foz Cataratas Ltda.",
        "marker-color": "#ff0000",
        "marker-size": "medium"
      },
      "geometry": {
        "coordinates": [
          -54.58570379358525,
          -25.54269525106271
        ],
        "type": "Point"
      }
    },
    {
      "type": "Feature",
      "properties": {
        "name": "Multicapas",
        "marker-color": "#ff0000",
        "marker-size": "medium"
      },
      "geometry": {
        "coordinates": [
          -54.58650089420182,
          -25.54318673931155
        ],
        "type": "Point"
      }
    },
    {
      "type": "Feature",
      "properties": {
        "name": "MapCell",
        "marker-color": "#ff0000",
        "marker-size": "medium"
      },
      "geometry": {
        "coordinates": [
          -54.5846303731407,
          -25.54118824949795
        ],
        "type": "Point"
      }
    },
    {
      "type": "Feature",
      "properties": {
        "name": "Milers Lanches",
        "marker-color": "#ff0000",
        "marker-size": "medium"
      },
      "geometry": {
        "coordinates": [
          -54.53845479208769,
          -25.551915203396206
        ],
        "type": "Point"
      }
    },
    {
      "type": "Feature",
      "properties": {
        "name": "James Bar",
        "marker-color": "#ff0000",
        "marker-size": "medium"
      },
      "geometry": {
        "coordinates": [
          -54.554821727133344,
          -25.54847222524954
        ],
        "type": "Point"
      }
    },
    {
      "type": "Feature",
      "properties": {
        "name": "Rute Espetinhos",
        "marker-color": "#ff0000",
        "marker-size": "medium"
      },
      "geometry": {
        "coordinates": [
          -54.580445554327,
          -25.514088921811847
        ],
        "type": "Point"
      }
    },
    {
      "type": "Feature",
      "properties": {
        "name": "EURO AMERICA CONSULTING AND IMPORT S.A.",
        "marker-color": "#ff0000",
        "marker-size": "medium"
      },
      "geometry": {
        "coordinates": [
          -54.61466573746745,
          -25.50779046344792
        ],
        "type": "Point"
      }
    },
    {
      "type": "Feature",
      "properties": {
        "name": "Só Capas",
        "marker-color": "#ff0000",
        "marker-size": "medium"
      },
      "geometry": {
        "coordinates": [
          -54.586107661881826,
          -25.54231585730679
        ],
        "type": "Point"
      }
    },
    {
      "type": "Feature",
      "properties": {
        "name": "Maracaju Gás",
        "marker-color": "#ff0000",
        "marker-size": "medium"
      },
      "geometry": {
        "coordinates": [
          -54.58423901336873,
          -25.469475340081004
        ],
        "type": "Point"
      }
    },
    {
      "type": "Feature",
      "properties": {
        "name": "Abrapar Despachos Aduaneiros Ltda",
        "marker-color": "#ff0000",
        "marker-size": "medium"
      },
      "geometry": {
        "coordinates": [
          -54.57440494556553,
          -25.524555658642626
        ],
        "type": "Point"
      }
    },
    {
      "type": "Feature",
      "properties": {
        "name": "Neubern Engenharia em Concreto Pre Moldados Ltda",
        "marker-color": "#ff0000",
        "marker-size": "medium"
      },
      "geometry": {
        "coordinates": [
          -54.577867619184886,
          -25.459103147392028
        ],
        "type": "Point"
      }
    },
    {
      "type": "Feature",
      "properties": {
        "name": "Concreto Armado Pre-Moldados Ltda",
        "marker-color": "#ff0000",
        "marker-size": "medium"
      },
      "geometry": {
        "coordinates": [
          -54.5258818059085,
          -25.517437432027364
        ],
        "type": "Point"
      }
    },
    {
      "type": "Feature",
      "properties": {
        "name": "ICLI",
        "marker-color": "#ff0000",
        "marker-size": "medium"
      },
      "geometry": {
        "coordinates": [
          -54.50988990236468,
          -25.441747864352166
        ],
        "type": "Point"
      }
    },
    {
      "type": "Feature",
      "properties": {
        "name": "Helisul Taxi Aereo",
        "marker-color": "#ff0000",
        "marker-size": "medium"
      },
      "geometry": {
        "coordinates": [
          -54.493603425465935,
          -25.60739059899811
        ],
        "type": "Point"
      }
    },
    {
      "type": "Feature",
      "properties": {
        "name": "D´orsay",
        "marker-color": "#ff0000",
        "marker-size": "medium"
      },
      "geometry": {
        "coordinates": [
          -54.58510879873728,
          -25.534795429310606
        ],
        "type": "Point"
      }
    },
    {
      "type": "Feature",
      "properties": {
        "name": "Recanto da Moda",
        "marker-color": "#ff0000",
        "marker-size": "medium"
      },
      "geometry": {
        "coordinates": [
          -54.57767363122457,
          -25.49447196243409
        ],
        "type": "Point"
      }
    },
    {
      "type": "Feature",
      "properties": {
        "name": "Hospital Madre de Dio",
        "marker-color": "#ff0000",
        "marker-size": "medium"
      },
      "geometry": {
        "coordinates": [
          -54.24294725485585,
          -25.354435970621907
        ],
        "type": "Point"
      }
    },
    {
      "type": "Feature",
      "properties": {
        "name ": "Lucio Jóias",
        "marker-color": "#ff0000",
        "marker-size": "medium"
      },
      "geometry": {
        "coordinates": [
          -54.58492723270025,
          -25.541552927938113
        ],
        "type": "Point"
      }
    },
    {
      "type": "Feature",
      "properties": {
        "name": "Medfer",
        "marker-color": "#ff0000",
        "marker-size": "medium"
      },
      "geometry": {
        "coordinates": [
          -54.095389813593854,
          -25.291317986797182
        ],
        "type": "Point"
      }
    },
    {
      "type": "Feature",
      "properties": {
        "name": "Secretaria Municipal de Saúde",
        "marker-color": "#ff0000",
        "marker-size": "medium"
      },
      "geometry": {
        "coordinates": [
          -54.5865101667505,
          -25.548602957759513
        ],
        "type": "Point"
      }
    },
    {
      "type": "Feature",
      "properties": {
        "name": "Motel Libidus",
        "marker-color": "#ff0000",
        "marker-size": "medium"
      },
      "geometry": {
        "coordinates": [
          -54.55589419420275,
          -25.517446210365208
        ],
        "type": "Point"
      }
    },
    {
      "type": "Feature",
      "properties": {
        "name": "CliniCell",
        "marker-color": "#ff0000",
        "marker-size": "medium"
      },
      "geometry": {
        "coordinates": [
          -54.58398986731177,
          -25.544717912636486
        ],
        "type": "Point"
      }
    },
    {
      "type": "Feature",
      "properties": {
        "name": "Eletroeste",
        "marker-color": "#ff0000",
        "marker-size": "medium"
      },
      "geometry": {
        "coordinates": [
          -54.58457727510459,
          -25.51174203029464
        ],
        "type": "Point"
      }
    },
    {
      "type": "Feature",
      "properties": {
        "name": "Juana Maidana Turmina ME",
        "marker-color": "#ff0000",
        "marker-size": "medium"
      },
      "geometry": {
        "coordinates": [
          -54.5748634293103,
          -25.490662851328736
        ],
        "type": "Point"
      }
    },
    {
      "type": "Feature",
      "properties": {
        "name": "RC Construtora",
        "marker-color": "#ff0000",
        "marker-size": "medium"
      },
      "geometry": {
        "coordinates": [
          -54.582583459496604,
          -25.53600279880372
        ],
        "type": "Point"
      }
    },
    {
      "type": "Feature",
      "properties": {
        "name": "MAGIA DA SELVA CONFECCOES LTDA.",
        "marker-color": "#ff0000",
        "marker-size": "medium"
      },
      "geometry": {
        "coordinates": [
          -54.4820927042655,
          -25.613226514776045
        ],
        "type": "Point"
      }
    },
    {
      "type": "Feature",
      "properties": {
        "name": "COMERCIO VAREJISTA LUAN GLASSES E SEMI JOIAS LTDA.",
        "marker-color": "#ff0000",
        "marker-size": "medium"
      },
      "geometry": {
        "coordinates": [
          -54.50642189129992,
          -25.485631623439048
        ],
        "type": "Point"
      }
    },
    {
      "type": "Feature",
      "properties": {
        "name": "COMERCIO DE OCULOS RODRIGUES LTDA.",
        "marker-color": "#ff0000",
        "marker-size": "medium"
      },
      "geometry": {
        "coordinates": [
          -54.58460142697707,
          -25.544675183872343
        ],
        "type": "Point"
      }
    },
    {
      "type": "Feature",
      "properties": {
        "name": "COMERCIO DE OCULOS LUAN LTDA",
        "marker-color": "#ff0000",
        "marker-size": "medium"
      },
      "geometry": {
        "coordinates": [
          -54.57593312207513,
          -25.576701901927734
        ],
        "type": "Point"
      }
    },
    {
      "type": "Feature",
      "properties": {
        "name": "PREFEITURA SÃO LUIZ GONZAGA",
        "marker-color": "#ff0000",
        "marker-size": "medium"
      },
      "geometry": {
        "coordinates": [
          -54.960659477471,
          -28.408460857998826
        ],
        "type": "Point"
      }
    }
  ]
}
